250724,,,A*65
$GPVTG,,T,,M,1.865,N,3.453,K,A*28
$GPGGA,131658.00,5556.45449,N,00315.15496,W,1,05,1.80,71.8,M,49.9,M,,*73
$GPGSA,A,3,04,31,03,17,02,,,,,,,,2.65,1.80,1.94*07
$GPGSV,3,1,12,02,11,140,11,03,55,082,26,04,65,143,19,06,52,294,12*76
$GPGSV,3,2,12,09,39,196,,11,11,304,,12,08,320,,17,32,221,15*79
$GPGSV,3,3,12,19,43,249,,25,07,351,,28,14,028,,31,25,059,30*72
$GPGLL,5556.45449,N,00315.15496,W,131658.00,A,A*70
$GPRMC,131659.00,A,5556.45470,N,00315.15442,W,1.926,,250724,,,A*61
$GPVTG,,T,,M,1.926,N,3.568,K,A*27
$GPGGA,131659.00,5556.45470,N,00315.15442,W,1,05,1.80,71.9,M,49.9,M,,*70
$GPGSA,A,3,04,31,03,17,02,,,,,,,,2.65,1.80,1.94*07
$GPGSV,3,1,12,02,11,140,11,03,55,082,26,04,65,143,20,06,52,294,13*7D
$GPGSV,3,2,12,09,39,196,,11,11,304,,12,08,320,,17,32,221,14*78
$GPGSV,3,3,12,19,43,249,,25,07,351,,28,14,028,,31,25,059,29*7A
$GPGLL,5556.45470,N,00315.15442,W,131659.00,A,A*72
$GPRMC,131700.00,A,5556.45515,N,00315.15513,W,1.529,,250724,,,A*68
$GPVTG,,T,,M,1.529,N,2.832,K,A*27
$GPGGA,131700.00,5556.45515,N,00315.15513,W,1,05,1.80,72.0,M,49.9,M,,*70
$GPGSA,A,3,04,31,03,17,02,,,,,,,,2.65,1.80,1.94*07
$GPGSV,3,1,12,02,11,140,11,03,55,082,26,04,65,143,20,06,52,294,13*7D
$GPGSV,3,2,12,09,39,196,,11,11,304,,12,08,320,,17,32,221,13*7F
$GPGSV,3,3,12,19,43,249,,25,07,351,,28,14,028,,31,25,059,30*72
$GPGLL,5556.45515,N,00315.15513,W,131700.00,A,A*78
$GPRMC,131701.00,A,5556.45606,N,00315.15653,W,1.571,,250724,,,A*62
$GPVTG,,T,,M,1.571,N,2.909,K,A*23
$GPGGA,131701.00,5556.45606,N,00315.15653,W,1,05,1.80,72.3,M,49.9,M,,*74
$GPGSA,A,3,04,31,03,17,02,,,,,,,,2.65,1.80,1.94*07
$GPGSV,3,1,12,02,11,140,11,03,55,082,26,04,65,143,20,06,52,294,15*7B
$GPGSV,3,2,12,09,39,196,,11,11,304,,12,08,320,,17,32,221,14*78
$GPGSV,3,3,12,19,43,249,,25,07,351,,28,14,028,,31,25,059,30*72
$GPGLL,5556.45606,N,00315.15653,W,131701.00,A,A*7F
$GPRMC,131702.00,A,5556.45702,N,00315.15795,W,1.857,,250724,,,A*66
$GPVTG,,T,,M,1.857,N,3.439,K,A*25
$GPGGA,131702.00,5556.45702,N,00315.15795,W,1,05,1.80,72.7,M,49.9,M,,*7D
$GPGSA,A,3,04,31,03,17,02,,,,,,,,2.65,1.80,1.94*07
$GPGSV,3,1,12,02,11,140,07,03,55,082,26,04,65,143,20,06,52,294,16*7F
$GPGSV,3,2,12,09,39,196,,11,11,304,,12,08,320,,17,32,220,15*78
$GPGSV,3,3,12,19,43,249,,25,07,351,,28,14,028,,31,25,059,30*72
$GPGLL,5556.45702,N,00315.15795,W,131702.00,A,A*72
$GPRMC,131703.00,A,5556.45720,N,00315.15436,W,3.342,,250724,,,A*60
$GPVTG,,T,,M,3.342,N,6.190,K,A*2B
$GPGGA,131703.00,5556.45720,N,00315.15436,W,1,05,1.80,73.6,M,49.9,M,,*76
$GPGSA,A,3,04,31,03,17,02,,,,,,,,2.65,1.80,1.94*07
$GPGSV,3,1,12,02,11,140,07,03,55,082,27,04,65,143,20,06,52,294,14*7C
$GPGSV,3,2,12,09,39,196,,11,11,304,,12,08,320,,17,32,220,14*79
$GPGSV,3,3,12,19,43,249,,25,07,351,,28,14,028,,31,25,059,30*72
$GPGLL,5556.45720,N,00315.15436,W,131703.00,A,A*79
$GPRMC,131704.00,V,,,,,,,250724,,,N*7B
$GPVTG,,,,,,,,,N*30
$GPGGA,131704.00,,,,,0,05,26.28,,,,,,*6D
$GPGSA,A,1,04,31,03,17,02,,,,,,,,26.30,26.28,1.00*09
$GPGSV,3,1,12,02,11,140,07,03,55,082,27,04,65,143,20,06,52,294,14*7C
$GPGSV,3,2,12,09,39,196,,11,11,304,,12,08,320,,17,32,220,13*7E
$GPGSV,3,3,12,19,42,249,,25,07,351,,28,14,028,,31,25,059,30*73
$GPGLL,,,,,131704.00,V,N*4A
$GPRMC,131705.00,V,,,,,,,250724,,,N*7A
$GPVTG,,,,,,,,,N*30
$GPGGA,131705.00,,,,,0,05,26.18,,,,,,*6F
$GPGSA,A,1,04,31,03,17,02,,,,,,,,26.20,26.18,1.00*0B
$GPGSV,3,1,12,02,11,140,07,03,55,082,27,04,65,143,19,06,52,294,14*76
$GPGSV,3,2,12,09,39,196,,11,11,304,,12,08,320,,17,32,220,11*7C
$GPGSV,3,3,12,19,42,249,,25,07,351,,28,14,028,,31,25,059,30*73
$GPGLL,,,,,131705.00,V,N*4B
$GPRMC,131706.00,V,,,,,,,250724,,,N*79
$GPVTG,,,,,,,,,N*30
$GPGGA,131706.00,,,,,0,05,26.08,,,,,,*6D
$GPGSA,A,1,04,31,03,17,02,,,,,,,,26.10,26.08,1.00*09
$GPGSV,3,1,12,02,11,140,07,03,55,082,27,04,65,143,19,06,52,294,14*76
$GPGSV,3,2,12,09,39,196,,11,11,304,,12,08,320,,17,32,220,10*7D
$GPGSV,3,3,12,19,42,249,,25,07,351,,28,14,028,,31,25,059,30*73
$GPGLL,,,,,131706.00,V,N*48
$GPRMC,131707.00,V,,,,,,,250724,,,N*78
$GPVTG,,,,,,,,,N*30
$GPGGA,131707.00,,,,,0,04,25.98,,,,,,*67
$GPGSA,A,1,04,31,03,02,,,,,,,,,26.00,25.98,1.00*04
$GPGSV,3,1,12,02,11,140,07,03,55,082,27,04,65,143,18,06,52,294,12*71
$GPGSV,3,2,12,09,39,196,,11,11,304,,12,08,320,,17,32,220,*7C
$GPGSV,3,3,12,19,42,249,,25,07,351,,28,14,028,,31,25,059,29*7B
$GPGLL,,,,,131707.00,V,N*49
$GPRMC,131708.00,V,,,,,,,250724,,,N*77
$GPVTG,,,,,,,,,N*30
$GPGGA,131708.00,,,,,0,04,25.88,,,,,,*69
$GPGSA,A,1,04,31,03,02,,,,,,,,,25.90,25.88,1.00*0F
$GPGSV,3,1,12,02,11,140,09,03,55,082,27,04,65,143,19,06,52,294,10*7C
$GPGSV,3,2,12,09,39,196,,11,11,304,,12,08,320,,17,32,220,*7C
$GPGSV,3,3,12,19,42,249,,25,07,351,,28,14,028,,31,25,059,29*7B
$GPGLL,,,,,131708.00,V,N*46
$GPRMC,131709.00,V,,,,,,,250724,,,N*76
$GPVTG,,,,,,,,,N*30
$GPGGA,131709.00,,,,,0,05,25.79,,,,,,*67
$GPGSA,A,1,04,31,03,17,02,,,,,,,,25.81,25.79,1.00*07
$GPGSV,3,1,12,02,11,140,09,03,55,082,26,04,65,143,20,06,52,294,09*7F
$GPGSV,3,2,12,09,39,196,,11,11,304,,12,08,320,,17,32,220,14*79
$GPGSV,3,3,12,19,42,249,,25,07,351,,28,14,028,,31,25,059,30*73
$GPGLL,,,,,131709.00,V,N*47
$GPRMC,131710.00,A,5556.46094,N,00315.15841,W,1.928,,250724,,,A*61
$GPVTG,,T,,M,1.928,N,3.571,K,A*21
$GPGGA,131710.00,5556.46094,N,00315.15841,W,1,05,8.71,72.2,M,49.9,M,,*71
$GPGSA,A,3,04,31,03,17,02,,,,,,,,10.07,8.71,5.06*38
$GPGSV,3,1,12,02,11,140,09,03,55,082,26,04,65,143,21,06,52,294,*77
$GPGSV,3,2,12,09,39,196,,11,11,304,,12,08,320,,17,32,220,13*7E
$GPGSV,3,3,12,19,42,249,,25,07,351,,28,14,028,,31,25,059,30*73
$GPGLL,5556.46094,N,00315.15841,W,131710.00,A,A*7C
$GPRMC,131711.00,A,5556.46676,N,00315.17068,W,4.363,324.00,250724,,,A*70
$GPVTG,324.00,T,,M,4.363,N,8.081,K,A*3B
$GPGGA,131711.00,5556.46676,N,00315.17068,W,1,05,8.71,72.3,M,49.9,M,,*7A
$GPGSA,A,3,04,31,03,17,02,,,,,,,,10.07,8.71,5.05*3B
$GPGSV,3,1,12,02,11,140,09,03,55,082,27,04,65,143,20,06,52,294,*77
$GPGSV,3,2,12,09,39,196,,11,11,304,,12,08,320,,17,32,220,11*7C
$GPGSV,3,3,12,19,42,249,,25,07,351,,28,14,028,,31,25,059,29*7B
$GPGLL,5556.46676,N,00315.17068,W,131711.00,A,A*76
$GPRMC,131712.00,A,5556.47280,N,00315.18364,W,6.901,324.10,250724,,,A*72
$GPVTG,324.10,T,,M,6.901,N,12.780,K,A*0B
$GPGGA,131712.00,5556.47280,N,00315.18364,W,1,04,8.70,72.4,M,49.9,M,,*72
$GPGSA,A,3,04,31,03,02,,,,,,,,,10.06,8.70,5.05*3D
$GPGSV,3,1,12,02,11,140,09,03,55,082,27,04,65,143,20,06,52,294,*77
$GPGSV,3,2,12,09,39,196,,11,11,304,,12,08,320,,17,32,220,09*75
$GPGSV,3,3,12,19,42,249,,25,07,351,,28,14,028,,31,25,059,29*7B
$GPGLL,5556.47280,N,00315.18364,W,131712.00,A,A*79
$GPRMC,131713.00,V,,,,,,,250724,,,N*7D
$GPVTG,,,,,,,,,N*30
$GPGGA,131713.00,,,,,0,03,25.41,,,,,,*61
$GPGSA,A,1,04,31,03,,,,,,,,,,25.43,25.41,1.00*06
$GPGSV,3,1,12,02,11,140,,03,55,082,27,04,65,143,21,06,52,294,*7F
$GPGSV,3,2,12,09,39,196,,11,11,304,,12,08,320,,17,32,220,08*74
$GPGSV,3,3,12,19,42,249,,25,07,351,,28,14,027,,31,25,059,29*74
$GPGLL,,,,,131713.00,V,N*4C
$GPRMC,131714.00,V,,,,,,,250724,,,N*7A
$GPVTG,,,,,,,,,N*30
$GPGGA,131714.00,,,,,0,03,25.31,,,,,,*61
$GPGSA,A,1,04,31,03,,,,,,,,,,25.33,25.31,1.00*06
$GPGSV,3,1,12,02,11,140,,03,55,082,26,04,65,143,21,06,52,294,*7E
$GPGSV,3,2,12,09,39,196,,11,11,304,,12,08,320,,17,32,220,09*75
$GPGSV,3,3,12,19,42,249,,25,07,351,,28,14,027,,31,25,059,30*7C
$GPGLL,,,,,131714.00,V,N*4B
