$GPGSV,3,3,12,21,47,116,21,22,23,272,,28,09,076,23,32,22,041,23*7F
$GPGLL,5556.44890,N,00315.31371,W,110957.00,A,A*72
$GPRMC,110958.00,A,5556.44799,N,00315.31088,W,1.206,,260724,,,A*67
$GPVTG,,T,,M,1.206,N,2.234,K,A*21
$GPGGA,110958.00,5556.44799,N,00315.31088,W,1,04,3.04,-36.2,M,49.9,M,,*56
$GPGSA,A,2,21,32,02,28,,,,,,,,,3.20,3.04,1.00*0E
$GPGSV,3,1,12,02,66,120,28,03,64,222,20,04,11,175,21,06,01,286,*7D
$GPGSV,3,2,12,08,03,161,,14,14,250,,17,48,291,18,19,25,311,*74
$GPGSV,3,3,12,21,47,116,22,22,23,272,,28,09,076,23,32,22,041,23*7C
$GPGLL,5556.44799,N,00315.31088,W,110958.00,A,A*7E
$GPRMC,110959.00,A,5556.44684,N,00315.30778,W,0.735,,260724,,,A*66
$GPVTG,,T,,M,0.735,N,1.362,K,A*24
$GPGGA,110959.00,5556.44684,N,00315.30778,W,1,04,3.04,-36.2,M,49.9,M,,*53
$GPGSA,A,2,21,32,02,28,,,,,,,,,3.20,3.04,1.00*0E
$GPGSV,3,1,12,02,66,120,28,03,64,222,20,04,11,175,21,06,01,286,*7D
$GPGSV,3,2,12,08,03,161,,14,14,250,,17,48,291,18,19,25,311,*74
$GPGSV,3,3,12,21,47,116,22,22,23,272,,28,09,076,23,32,22,041,24*7B
$GPGLL,5556.44684,N,00315.30778,W,110959.00,A,A*7B
$GPRMC,111000.00,A,5556.44617,N,00315.30520,W,0.370,,260724,,,A*62
$GPVTG,,T,,M,0.370,N,0.684,K,A*2D
$GPGGA,111000.00,5556.44617,N,00315.30520,W,1,04,3.04,-36.2,M,49.9,M,,*52
$GPGSA,A,2,21,32,02,28,,,,,,,,,3.20,3.04,1.00*0E
$GPGSV,3,1,12,02,66,120,28,03,64,222,20,04,11,175,21,06,01,286,*7D
$GPGSV,3,2,12,08,03,161,,14,14,250,,17,48,291,16,19,25,311,*7A
$GPGSV,3,3,12,21,47,116,21,22,23,272,,28,09,076,23,32,22,041,23*7F
$GPGLL,5556.44617,N,00315.30520,W,111000.00,A,A*7A
$GPRMC,111001.00,A,5556.44576,N,00315.30395,W,0.617,,260724,,,A*6B
$GPVTG,,T,,M,0.617,N,1.143,K,A*24
$GPGGA,111001.00,5556.44576,N,00315.30395,W,1,04,3.04,-36.2,M,49.9,M,,*5F
$GPGSA,A,2,21,32,02,28,,,,,,,,,3.20,3.04,1.00*0E
$GPGSV,3,1,12,02,66,120,28,03,64,222,20,04,11,175,22,06,01,286,*7E
$GPGSV,3,2,12,08,03,161,,14,14,250,,17,48,291,16,19,25,311,*7A
$GPGSV,3,3,12,21,47,116,21,22,23,272,,28,09,076,24,32,22,041,23*78
$GPGLL,5556.44576,N,00315.30395,W,111001.00,A,A*77
$GPRMC,111002.00,A,5556.44481,N,00315.30151,W,0.446,,260724,,,A*6D
$GPVTG,,T,,M,0.446,N,0.826,K,A*29
$GPGGA,111002.00,5556.44481,N,00315.30151,W,1,04,3.04,-36.2,M,49.9,M,,*5F
$GPGSA,A,2,21,32,02,28,,,,,,,,,3.20,3.04,1.00*0E
$GPGSV,3,1,12,02,66,120,28,03,64,222,21,04,11,175,22,06,01,286,*7F
$GPGSV,3,2,12,08,03,161,,14,14,250,,17,48,291,16,19,25,311,*7A
$GPGSV,3,3,12,21,47,116,20,22,23,272,,28,09,076,24,32,22,041,23*79
$GPGLL,5556.44481,N,00315.30151,W,111002.00,A,A*77
$GPRMC,111003.00,A,5556.44433,N,00315.29976,W,0.407,,260724,,,A*65
$GPVTG,,T,,M,0.407,N,0.754,K,A*26
$GPGGA,111003.00,5556.44433,N,00315.29976,W,1,04,3.04,-36.2,M,49.9,M,,*52
$GPGSA,A,2,21,32,02,28,,,,,,,,,3.20,3.04,1.00*0E
$GPGSV,3,1,12,02,66,120,28,03,64,222,21,04,11,175,21,06,01,286,*7C
$GPGSV,3,2,12,08,03,161,,14,14,250,,17,48,291,16,19,25,311,*7A
$GPGSV,3,3,12,21,47,116,20,22,23,272,,28,09,076,24,32,22,041,22*78
$GPGLL,5556.44433,N,00315.29976,W,111003.00,A,A*7A
$GPRMC,111004.00,A,5556.44397,N,00315.29806,W,0.461,,260724,,,A*6D
$GPVTG,,T,,M,0.461,N,0.854,K,A*29
$GPGGA,111004.00,5556.44397,N,00315.29806,W,1,04,3.04,-36.2,M,49.9,M,,*5A
$GPGSA,A,2,21,32,02,28,,,,,,,,,3.20,3.04,1.00*0E
$GPGSV,3,1,12,02,66,120,28,03,64,222,20,04,11,175,21,06,01,286,*7D
$GPGSV,3,2,12,08,03,161,,14,14,250,,17,48,291,15,19,25,311,*79
$GPGSV,3,3,12,21,47,116,20,22,23,272,,28,09,076,24,32,22,041,23*79
$GPGLL,5556.44397,N,00315.29806,W,111004.00,A,A*72
$GPRMC,111005.00,A,5556.44329,N,00315.29582,W,0.195,,260724,,,A*66
$GPVTG,,T,,M,0.195,N,0.360,K,A*2B
$GPGGA,111005.00,5556.44329,N,00315.29582,W,1,04,3.04,-36.2,M,49.9,M,,*5F
$GPGSA,A,2,21,32,02,28,,,,,,,,,3.20,3.04,1.00*0E
$GPGSV,3,1,12,02,66,120,28,03,64,222,21,04,11,175,20,06,01,286,*7D
$GPGSV,3,2,12,08,03,161,,14,14,250,,17,48,291,13,19,25,311,*7F
$GPGSV,3,3,12,21,47,116,20,22,23,272,,28,09,076,24,32,22,041,22*78
$GPGLL,5556.44329,N,00315.29582,W,111005.00,A,A*77
$GPRMC,111006.00,A,5556.44239,N,00315.29417,W,0.296,,260724,,,A*68
$GPVTG,,T,,M,0.296,N,0.549,K,A*26
$GPGGA,111006.00,5556.44239,N,00315.29417,W,1,04,3.04,-36.2,M,49.9,M,,*51
$GPGSA,A,2,21,32,02,28,,,,,,,,,3.20,3.04,1.00*0E
$GPGSV,3,1,12,02,66,120,28,03,64,222,20,04,11,175,20,06,01,286,*7C
$GPGSV,3,2,12,08,03,161,,14,14,250,,17,48,291,11,19,25,311,*7D
$GPGSV,3,3,12,21,47,116,20,22,23,272,,28,09,076,24,32,22,041,23*79
$GPGLL,5556.44239,N,00315.29417,W,111006.00,A,A*79
$GPRMC,111007.00,A,5556.44170,N,00315.29189,W,0.296,,260724,,,A*65
$GPVTG,,T,,M,0.296,N,0.548,K,A*27
$GPGGA,111007.00,5556.44170,N,00315.29189,W,1,04,3.04,-36.2,M,49.9,M,,*5C
$GPGSA,A,2,21,32,02,28,,,,,,,,,3.20,3.04,1.00*0E
$GPGSV,3,1,12,02,66,120,28,03,64,222,20,04,11,175,21,06,01,286,*7D
$GPGSV,3,2,12,08,03,161,,14,14,250,,17,48,291,10,19,25,311,*7C
$GPGSV,3,3,12,21,47,116,19,22,23,272,,28,09,076,24,32,22,041,23*73
$GPGLL,5556.44170,N,00315.29189,W,111007.00,A,A*74
$GPRMC,111008.00,A,5556.44082,N,00315.28981,W,0.597,,260724,,,A*61
$GPVTG,,T,,M,0.597,N,1.106,K,A*2E
$GPGGA,111008.00,5556.44082,N,00315.28981,W,1,04,3.04,-36.2,M,49.9,M,,*5E
$GPGSA,A,2,21,32,02,28,,,,,,,,,3.20,3.04,1.00*0E
$GPGSV,3,1,12,02,66,120,28,03,64,222,20,04,11,175,21,06,01,286,*7D
$GPGSV,3,2,12,08,03,161,,14,14,250,,17,48,291,07,19,25,311,*7A
$GPGSV,3,3,12,21,47,116,20,22,23,272,,28,09,076,24,32,22,041,22*78
$GPGLL,5556.44082,N,00315.28981,W,111008.00,A,A*76
$GPRMC,111009.00,A,5556.44004,N,00315.28868,W,0.779,,260724,,,A*6A
$GPVTG,,T,,M,0.779,N,1.443,K,A*28
$GPGGA,111009.00,5556.44004,N,00315.28868,W,1,04,3.04,-36.2,M,49.9,M,,*57
$GPGSA,A,2,21,32,02,28,,,,,,,,,3.20,3.04,1.00*0E
$GPGSV,3,1,12,02,66,120,28,03,64,222,20,04,11,175,21,06,01,286,*7D
$GPGSV,3,2,12,08,03,161,,14,14,250,,17,48,291,07,19,25,311,*7A
$GPGSV,3,3,12,21,47,116,20,22,23,272,,28,09,076,24,32,22,041,23*79
$GPGLL,5556.44004,N,00315.28868,W,111009.00,A,A*7F
$GPRMC,111010.00,A,5556.43998,N,00315.28833,W,0.365,,260724,,,A*6E
$GPVTG,,T,,M,0.365,N,0.677,K,A*25
$GPGGA,111010.00,5556.43998,N,00315.28833,W,1,04,3.04,-36.2,M,49.9,M,,*5A
$GPGSA,A,2,21,32,02,28,,,,,,,,,3.20,3.04,1.00*0E
$GPGSV,3,1,12,02,66,120,28,03,64,222,20,04,11,175,22,06,01,286,*7E
$GPGSV,3,2,12,08,03,161,,14,14,250,,17,48,291,07,19,25,311,*7A
$GPGSV,3,3,12,21,47,116,20,22,23,272,,28,09,076,23,32,22,041,23*7E
$GPGLL,5556.43998,N,00315.28833,W,111010.00,A,A*72
$GPRMC,111011.00,A,5556.44000,N,00315.28804,W,0.268,,260724,,,A*68
$GPVTG,,T,,M,0.268,N,0.496,K,A*24
$GPGGA,111011.00,5556.44000,N,00315.28804,W,1,04,3.04,-36.2,M,49.9,M,,*50
$GPGSA,A,2,21,32,02,28,,,,,,,,,3.20,3.04,1.00*0E
$GPGSV,3,1,12,02,66,120,28,03,64,222,20,04,11,175,21,06,01,286,*7D
$GPGSV,3,2,12,08,03,161,,14,14,250,,17,48,291,07,19,25,311,*7A
$GPGSV,3,3,12,21,47,116,20,22,23,272,,28,09,076,24,32,22,041,23*79
$GPGLL,5556.44000,N,00315.28804,W,111011.00,A,A*78
$GPRMC,111012.00,A,5556.43956,N,00315.28729,W,0.508,,260724,,,A*67
$GPVTG,,T,,M,0.508,N,0.942,K,A*21
$GPGGA,111012.00,5556.43956,N,00315.28729,W,1,04,3.04,-36.2,M,49.9,M,,*5E
$GPGSA,A,2,21,32,02,28,,,,,,,,,3.20,3.04,1.00*0E
$GPGSV,3,1,12,02,66,120,28,03,64,222,21,04,11,175,21,06,01,286,*7C
$GPGSV,3,2,12,08,03,161,,14,14,250,,17,48,291,07,19,25,311,*7A
$GPGSV,3,3,12,21,47,116,20,22,23,272,,28,09,076,24,32,22,041,22*78
$GPGLL,5556.43956,N,00315.28729,W,111012.00,A,A*76
$GPRMC,111013.00,A,5556.43960,N,00315.28683,W,0.486,,260724,,,A*65
$GPVTG,,T,,M,0.486,N,0.901,K,A*21
$GPGGA,111013.00,5556.43960,N,00315.28683,W,1,04,3.04,-36.2,M,49.9,M,,*5B
$GPGSA,A,2,21,32,02,28,,,,,,,,,3.20,3.04,1.00*0E
$GPGSV,3,1,12,02,66,120,28,03,64,222,21,04,11,175,22,06,01,286,*7F
$GPGSV,3,2,12,08,03,161,,14,14,250,,17,48,291,07,19,25,311,*7A
$GPGSV,3,3,12,21,47,116,19,22,23,272,,28,09,076,23,32,22,041,22*75
$GPGLL,5556.43960,N,00315.28683,W,111013.00,A,A*73
$GPRMC,111014.00,A,5556.43904,N,00315.28501,W,0.269,,260724,,,A*6E
$GPVTG,,T,,M,0.269,N,0.498,K,A*2B
$GPGGA,111014.00,5556.43904,N,00315.28501,W,1,04,3.04,-36.2,M,49.9,M,,*57
$GPGSA,A,2,21,32,02,28,,,,,,,,,3.20,3.04,1.00*0E
$GPGSV,3,1,12,02,66,120,28,03,64,222,21,04,11,175,22,06,01,286,*7F
$GPGSV,3,2,12,08,03,161,,14,14,250,,17,48,291,07,19,25,311,*7A
$GPGSV,3,3,12,21,47,116,19,22,23,272,,28,09,076,24,32,22,041,22*72
$GPGLL,5556.43904,N,00315.28501,W,111014.00,A,A*7F
$GPRMC,111015.00,A,5556.43897,N,00315.28446,W,0.399,,260724,,,A*68
$GPVTG,,T,,M,0.399,N,0.739,K,A*2D
$GPGGA,111015.00,5556.43897,N,00315.28446,W,1,04,3.04,-36.2,M,49.9,M,,*5F
$GPGSA,A,2,21,32,02,28,,,,,,,,,3.20,3.04,1.00*0E
$GPGSV,3,1,12,02,66,120,28,03,64,222,21,04,11,175,21,06,01,286,*7C
$GPGSV,3,2,12,08,03,161,,14,14,250,,17,48,291,07,19,25,311,*7A
$GPGSV,3,3,12,21,47,116,17,22,23,272,,28,09,076,25,32,22,041,22*7D
$GPGLL,5556.43897,N,00315.28446,W,111015.00,A,A*77
$GPRMC,111016.00,A,5556.43852,N,00315.28303,W,0.292,,260724,,,A*6E
$GPVTG,,T,,M,0.292,N,0.542,K,A*29
$GPGGA,111016.00,5556.43852,N,00315.28303,W,1,04,3.04,-36.2,M,49.9,M,,*53
$GPGSA,A,2,21,32,02,28,,,,,,,,,3.20,3.04,1.00*0E
$GPGSV,3,1,12,02,66,120,28,03,64,222,21,04,11,175,21,06,01,286,*7C
$GPGSV,3,2,12,08,03,161,,14,14,250,,17,48,291,07,19,25,311,*7A
$GPGSV,3,3,12,21,47,116,18,22,23,272,,28,09,076,25,32,22,041,22*72
$GPGLL,5556.43852,N,00315.28303,W,111016.00,A,A*7B
$GPRMC,111017.00,A,5556.43788,N,00315.28125,W,0.244,,260724,,,A*6A
$GPVTG,,T,,M,0.244,N,0.453,K,A*23
$GPGGA,111017.00,5556.43788,N,00315.28125,W,1,04,3.04,-36.2,M,49.9,M,,*5C
$GPGSA,A,2,21,32,02,28,,,,,,,,,3.20,3.04,1.00*0E
$GPGSV,3,1,12,02,65,120,28,03,64,222,21,04,11,175,20,06,01,286,*7E
$GPGSV,3,2,12,08,03,161,,14,14,250,,17,48,291,07,19,25,311,*7A
$GPGSV,3,3,12,21,47,116,18,22,23,272,,28,09,076,24,32,22,041,22*73
$GPGLL,5556.43788,N,00315.28125,W,111017.00,A,A*74
$GPRMC,111018.00,A,5556.43764,N,00315.28115,W,0.362,,260724,,,A*61
$GPVTG,,T,,M,0.362,N,0.670,K,A*25
$GPGGA,111018.00,5556.43764,N,00315.28115,W,1,04,3.04,-36.2,M,49.9,M,,*52
$GPGSA,A,2,21,32,02,28,,,,,,,,,3.20,3.04,1.00*0E
$GPGSV,3,1,12,02,65,120,28,03,65,222,21,04,11,175,20,06,01,286,*7F
$GPGSV,3,2,12,08,03,161,,14,14,250,,17,48,291,07,19,25,311,*7A
$GPGSV,3,3,12,21,47,116,18,22,23,272,,28,09,076,25,32,22,041,21*71
$GPGLL,5556.43764,N,00315.28115,W,111018.00,A,A*7A
$GPRMC,111019.00,A,5556.43787,N,00315.28136,W,0.624,,260724,,,A*6B
$GPVTG,,T,,M,0.624,N,1.155,K,A*23
$GPGGA,111019.00,5556.43787,N,00315.28136,W,1,04,3.04,-36.2,M,49.9,M,,*5F
$GPGSA,A,2,21,32,02,28,,,,,,,,,3.20,3.04,1.00*0E
$GPGSV,3,1,12,02,65,120,27,03,65,222,20,04,12,175,21,06,01,286,*73
$GPGSV,3,2,12,08,03,161,,14,14,250,,17,48,291,07,19,25,311,*7A
$GPGSV,3,3,12,21,47,116,18,22,23,272,,28,09,076,25,32,22,041,22*72
$GPGLL,5556.43787,N,00315.28136,W,111019.00,A,A*77
$GPRMC,111020.00,A,5556.43717,N,00315.27976,W,0.316,,260724,,,A*6F
$GPVTG,,T,,M,0.316,N,0.585,K,A*2F
$GPGGA,111020.00,5556.43717,N,00315.27976,W,1,04,3.04,-36.2,M,49.9,M,,*5F
$GPGSA,A,2,21,32,02,28,,,,,,,,,3.20,3.04,1.00*0E
$GPGSV,3,1,12,02,65,120,27,03,65,222,19,04,12,175,21,06,01,286,*79
$GPGSV,3,2,12,08,03,161,,14,14,250,,17,48,291,07,19,25,311,*7A
$GPGSV,3,3,12,21,47,116,19,22,23,272,,28,09,076,25,32,22,041,23*72
$GPGLL,5556.43717,N,00315.27976,W,111020.00,A,A*77
$GPRMC,111021.00,A,5556.43677,N,00315.27852,W,0.219,,260724,,,A*60
$GPVTG,,T,,M,0.219,N,0.406,K,A*2B
$GPGGA,111021.00,5556.43677,N,00315.27852,W,1,04,3.04,-36.2,M,49.9,M,,*5E
$GPGSA,A,2,21,32,02,28,,,,,,,,,3.20,3.04,1.00*0E
$GPGSV,3,1,12,02,65,120,28,03,65,222,19,04,12,175,21,06,01,286,*76
$GPGSV,3,2,12,08,03,161,,14,14,250,,17,48,291,07,19,25,311,*7A
$GPGSV,3,3,12,21,47,116,19,22,23,272,,28,09,076,25,32,22,041,23*72
$GPGLL,5556.43677,N,00315.27852,W,111021.00,A,A*76
$GPRMC,111022.00,A,5556.43698,N,00315.27822,W,0.430,,260724,,,A*68
$GPVTG,,T,,M,0.430,N,0.796,K,A*2C
$GPGGA,111022.00,5556.43698,N,00315.27822,W,1,04,3.04,-36.2,M,49.9,M,,*5B
$GPGSA,A,2,21,32,02,28,,,,,,,,,3.20,3.04,1.00*0E
$GPGSV,3,1,12,02,65,120,28,03,65,222,19,04,12,175,21,06,01,286,*76
$GPGSV,3,2,12,08,03,161,,14,14,250,,17,48,291,07,19,25,311,*7A
$GPGSV,3,3,12,21,47,116,19,22,23,272,,28,09,076,25,32,22,041,23*72
$GPGLL,5556.43698,N,00315.27822,W,111022.00,A,A*73
$GPRMC,111023.00,A,5556.43702,N,00315.27762,W,0.589,,260724,,,A*63
$GPVTG,,T,,M,0.589,N,1.091,K,A*2E
$GPGGA,111023.00,5556.43702,N,00315.27762,W,1,04,3.04,-36.2,M,49.9,M,,*53
$GPGSA,A,2,21,32,02,28,,,,,,,,,3.20,3.04,1.00*0E
$GPGSV,3,1,12,02,65,120,28,03,65,222,20,04,12,175,22,06,01,286,*7F
$GPGSV,3,2,12,08,02,161,,14,14,250,,17,48,291,07,19,25,311,*7B
$GPGSV,3,3,12,21,47,116,19,22,23,272,,28,09,076,25,32,22,041,22*73
$GPGLL,5556.43702,N,00315.27762,W,111023.00,A,A*7B
$GPRMC,111024.00,A,5556.43661,N,00315.27672,W,0.332,,260724,,,A*66
$GPVTG,,T,,M,0.332,N,0.615,K,A*23
$GPGGA,111024.00,5556.43661,N,00315.27672,W,1,04,3.04,-36.2,M,49.9,M,,*50
$GPGSA,A,2,21,32,02,28,,,,,,,,,3.20,3.04,1.00*0E
$GPGSV,3,1,12,02,65,120,28,03,65,222,20,04,12,175,21,06,01,286,*7C
$GPGSV,3,2,12,08,02,161,,14,14,250,,17,48,291,07,19,25,311,*7B
$GPGSV,3,3,12,21,47,116,18,22,23,272,,28,09,076,25,32,22,041,22*72
$GPGLL,5556.43661,N,00315.27672,W,111024.00,A,A*78
$GPRMC,111025.00,A,5556.43618,N,00315.27527,W,0.116,,260724,,,A*6E
$GPVTG,,T,,M,0.116,N,0.215,K,A*23
$GPGGA,111025.00,5556.43618,N,00315.27527,W,1,04,3.04,-36.2,M,49.9,M,,*5C
$GPGSA,A,2,21,32,02,28,,,,,,,,,3.20,3.04,1.00*0E
$GPGSV,3,1,12,02,65,120,28,03,65,222,21,04,12,175,21,06,01,286,*7D
$GPGSV,3,2,12,08,02,161,,14,14,250,,17,48,291,07,19,25,311,*7B
$GPGSV,3,3,12,21,47,116,17,22,23,272,,28,09,076,25,32,22,041,21*7E
$GPGLL,5556.43618,N,00315.27527,W,111025.00,A,A*74
$GPRMC,111026.00,A,5556.43611,N,00315.27471,W,0.231,,260724,,,A*60
$GPVTG,,T,,M,0.231,N,0.429,K,A*2C
$GPGGA,111026.00,5556.43611,N,00315.27471,W,1,04,3.04,-36.2,M,49.9,M,,*54
$GPGSA,A,2,21,32,02,28,,,,,,,,,3.20,3.04,1.00*0E
$GPGSV,3,1,12,02,65,120,27,03,65,222,21,04,12,175,22,06,01,286,*71
$GPGSV,3,2,12,08,02,161,,14,14,250,,17,48,291,07,19,25,311,*7B
$GPGSV,3,3,12,21,47,116,14,22,23,272,,28,09,076,26,32,22,041,21*7E
$GPGLL,5556.43611,N,00315.27471,W,111026.00,A,A*7C
$GPRMC,111027.00,A,5556.43594,N,00315.27407,W,0.179,,260724,,,A*61
$GPVTG,,T,,M,0.179,N,0.332,K,A*2E
$GPGGA,111027.00,5556.43594,N,00315.27407,W,1,04,3.04,-36.2,M,49.9,M,,*5A
$GPGSA,A,2,21,32,02,28,,,,,,,,,3.20,3.04,1.00*0E
$GPGSV,3,1,12,02,65,120,27,03,65,222,22,04,12,175,22,06,01,286,*72
$GPGSV,3,2,12,08,02,161,,14,14,250,,17,48,291,07,19,25,311,*7B
$GPGSV,3,3,12,21,47,116,11,22,23,272,,28,09,076,25,32,22,041,21*78
$GPGLL,5556.43594,N,00315.27407,W,111027.00,A,A*72
$GPRMC,111028.00,A,5556.43588,N,00315.27349,W,0.265,,260724,,,A*60
$GPVTG,,T,,M,0.265,N,0.491,K,A*2E
$GPGGA,111028.00,5556.43588,N,00315.27349,W,1,04,3.04,-36.2,M,49.9,M,,*55
$GPGSA,A,2,21,32,02,28,,,,,,,,,3.20,3.04,1.00*0E
$GPGSV,3,1,12,02,65,120,27,03,65,222,21,04,12,175,21,06,01,286,*72
$GPGSV,3,2,12,08,02,161,,14,14,250,,17,48,291,07,19,25,311,*7B
$GPGSV,3,3,12,21,47,116,13,22,23,272,,28,09,076,26,32,22,041,21*79
$GPGLL,5556.43588,N,00315.27349,W,111028.00,A,A*7D
$GPRMC,111029.00,A,5556.43523,N,00315.27213,W,0.199,,260724,,,A*6E
$GPVTG,,T,,M,0.199,N,0.369,K,A*2E
$GPGGA,111029.00,5556.43523,N,00315.27213,W,1,04,3.04,-36.2,M,49.9,M,,*5B
$GPGSA,A,2,21,32,02,28,,,,,,,,,3.20,3.04,1.00*0E
$GPGSV,3,1,12,02,65,120,28,03,65,222,21,04,12,175,20,06,01,286,*7C
$GPGSV,3,2,12,08,02,161,,14,13,250,,17,48,291,07,19,25,311,*7C
$GPGSV,3,3,12,21,47,116,15,22,23,272,,28,09,076,26,32,22,041,22*7C
$GPGLL,5556.43523,N,00315.27213,W,111029.00,A,A*73
$GPRMC,111030.00,A,5556.43462,N,00315.27097,W,0.504,,260724,,,A*6C
$GPVTG,,T,,M,0.504,N,0.933,K,A*2B
$GPGGA,111030.00,5556.43462,N,00315.27097,W,1,04,3.04,-36.2,M,49.9,M,,*59
$GPGSA,A,2,21,32,02,28,,,,,,,,,3.20,3.04,1.00*0E
$GPGSV,3,1,12,02,65,120,28,03,65,222,20,04,12,175,20,06,01,286,*7D
$GPGSV,3,2,12,08,02,161,,14,13,250,,17,48,291,07,19,25,311,*7C
$GPGSV,3,3,12,21,47,116,16,22,23,272,,28,09,076,26,32,22,041,21*7C
$GPGLL,5556.43462,N,00315.27097,W,111030.00,A,A*71
$GPRMC,111031.00,A,5556.43368,N,00315.26938,W,1.079,,260724,,,A*63
$GPVTG,,T,,M,1.079,N,1.999,K,A*24
$GPGGA,111031.00,5556.43368,N,00315.26938,W,1,04,3.04,-36.2,M,49.9,M,,*58
$GPGSA,A,2,21,32,02,28,,,,,,,,,3.20,3.04,1.00*0E
$GPGSV,3,1,12,02,65,120,28,03,65,222,19,04,12,175,20,06,01,286,*77
$GPGSV,3,2,12,08,02,161,,14,13,250,,17,48,291,07,19,25,311,*7C
$GPGSV,3,3,12,21,47,116,17,22,23,272,,28,09,076,26,32,22,041,21*7D
$GPGLL,5556.43368,N,00315.26938,W,111031.00,A,A*70
$GPRMC,111032.00,A,5556.43316,N,00315.26850,W,1.152,,260724,,,A*6E
$GPVTG,,T,,M,1.152,N,2.133,K,A*27
$GPGGA,111032.00,5556.43316,N,00315.26850,W,1,04,3.04,-36.2,M,49.9,M,,*5D
$GPGSA,A,2,21,32,02,28,,,,,,,,,3.20,3.04,1.00*0E
$GPGSV,3,1,12,02,65,120,27,03,65,222,20,04,12,175,21,06,01,286,*73
$GPGSV,3,2,12,08,02,161,,14,13,250,,17,48,291,06,19,25,311,*7D
$GPGSV,3,3,12,21,47,116,16,22,23,272,,28,09,076,25,32,22,041,22*7C
$GPGLL,5556.43316,N,00315.26850,W,111032.00,A,A*75
$GPRMC,111033.00,A,5556.43322,N,00315.26833,W,0.695,,260724,,,A*60
$GPVTG,,T,,M,0.695,N,1.288,K,A*2A
$GPGGA,111033.00,5556.43322,N,00315.26833,W,1,04,3.04,-36.2,M,49.9,M,,*5E
$GPGSA,A,2,21,32,02,28,,,,,,,,,3.20,3.04,1.00*0E
$GPGSV,3,1,12,02,65,120,28,03,65,222,20,04,12,175,21,06,01,286,*7C
$GPGSV,3,2,12,08,02,161,,14,13,250,,17,48,291,06,19,25,311,*7D
$GPGSV,3,3,12,21,47,116,15,22,23,272,,28,09,076,25,32,22,041,22*7F
$GPGLL,5556.43322,N,00315.26833,W,111033.00,A,A*76
$GPRMC,111034.00,A,5556.43269,N,00315.26705,W,0.872,,260724,,,A*64
$GPVTG,,T,,M,0.872,N,1.615,K,A*2D
$GPGGA,111034.00,5556.43269,N,00315.26705,W,1,04,3.04,-36.2,M,49.9,M,,*5D
$GPGSA,A,2,21,32,02,28,,,,,,,,,3.20,3.04,1.00*0E
$GPGSV,3,1,12,02,65,120,28,03,65,222,19,04,12,175,20,06,01,286,*77
$GPGSV,3,2,12,08,02,161,,14,13,250,,17,48,291,,19,26,311,*78
$GPGSV,3,3,12,21,47,116,13,22,23,272,,28,09,076,24,32,22,041,23*79
$GPGLL,5556.43269,N,00315.26705,W,111034.00,A,A*75
$GPRMC,111035.00,A,5556.43227,N,00315.26609,W,0.909,,260724,,,A*6F
$GPVTG,,T,,M,0.909,N,1.684,K,A*28
$GPGGA,111035.00,5556.43227,N,00315.26609,W,1,04,3.04,-36.2,M,49.9,M,,*5B
$GPGSA,A,2,21,32,02,28,,,,,,,,,3.20,3.04,1.00*0E
$GPGSV,3,1,12,02,65,120,28,03,65,222,20,04,12,175,20,06,01,286,*7D
$GPGSV,3,2,12,08,02,161,,14,13,250,,17,48,291,,19,26,311,*78
$GPGSV,3,3,12,21,47,116,14,22,23,272,,28,09,076,25,32,22,041,23*7F
$GPGLL,5556.43227,N,00315.26609,W,111035.00,A,A*73
$GPRMC,111036.00,A,5556.43208,N,00315.26548,W,0.812,,260724,,,A*6C
$GPVTG,,T,,M,0.812,N,1.504,K,A*28
$GPGGA,111036.00,5556.43208,N,00315.26548,W,1,04,3.04,-36.2,M,49.9,M,,*53
$GPGSA,A,2,21,32,02,28,,,,,,,,,3.20,3.04,1.00*0E
$GPGSV,3,1,12,02,65,120,28,03,65,222,19,04,12,175,20,06,01,286,*77
$GPGSV,3,2,12,08,02,161,,14,13,250,,17,48,291,,19,26,311,*78
$GPGSV,3,3,12,21,47,117,13,22,23,272,,28,09,076,24,32,22,041,22*79
$GPGLL,5556.43208,N,00315.26548,W,111036.00,A,A*7B
$GPRMC,111037.00,A,5556.43218,N,00315.26529,W,0.516,,260724,,,A*62
$GPVTG,,T,,M,0.516,N,0.955,K,A*28
$GPGGA,111037.00,5556.43218,N,00315.26529,W,1,03,3.25,-36.2,M,49.9,M,,*50
$GPGSA,A,2,32,02,28,,,,,,,,,,3.40,3.25,1.00*08
$GPGSV,3,1,12,02,65,120,28,03,65,222,19,04,12,175,20,06,01,286,*77
$GPGSV,3,2,12,08,02,161,,14,13,250,,17,48,291,,19,26,311,*78
$GPGSV,3,3,12,21,47,117,,22,23,272,,28,09,076,25,32,22,041,21*79
$GPGLL,5556.43218,N,00315.26529,W,111037.00,A,A*7C
$GPRMC,111038.00,A,5556.43228,N,00315.26489,W,0.356,,260724,,,A*67
$GPVTG,,T,,M,0.356,N,0.660,K,A*23
$GPGGA,111038.00,5556.43228,N,00315.26489,W,1,04,3.25,-36.2,M,49.9,M,,*50
$GPGSA,A,2,21,32,02,28,,,,,,,,,3.40,3.25,1.00*0B
$GPGSV,3,1,12,02,65,120,28,03,65,222,19,04,12,175,21,06,01,286,*76
$GPGSV,3,2,12,08,02,161,,14,13,250,,17,48,291,,19,26,311,*78
$GPGSV,3,3,12,21,47,117,15,22,23,272,,28,09,076,24,32,22,041,21*7C
$GPGLL,5556.43228,N,00315.26489,W,111038.00,A,A*7B
$GPRMC,111039.00,A,5556.43268,N,00315.26512,W,0.254,,260724,,,A*62
$GPVTG,,T,,M,0.254,N,0.471,K,A*22
$GPGGA,111039.00,5556.43268,N,00315.26512,W,1,04,3.25,-36.2,M,49.9,M,,*56
$GPGSA,A,2,21,32,02,28,,,,,,,,,3.40,3.25,1.00*0B
$GPGSV,3,1,12,02,65,120,28,03,65,222,19,04,12,175,21,06,01,286,*76
$GPGSV,3,2,12,08,02,161,,14,13,250,,17,48,291,,19,26,311,*78
$GPGSV,3,3,12,21,47,117,16,22,23,272,,28,09,076,24,32,22,041,21*7F
$GPGLL,5556.43268,N,00315.26512,W,111039.00,A,A*7D
$GPRMC,111040.00,A,5556.43337,N,00315.26565,W,0.672,,260724,,,A*67
$GPVTG,,T,,M,0.672,N,1.245,K,A*22
$GPGGA,111040.00,5556.43337,N,00315.26565,W,1,04,3.25,-36.2,M,49.9,M,,*53
$GPGSA,A,2,21,32,02,28,,,,,,,,,3.40,3.25,1.00*0B
$GPGSV,3,1,12,02,65,120,28,03,65,222,19,04,12,175,22,06,01,286,*75
$GPGSV,3,2,12,08,02,161,,14,13,250,,17,48,291,,19,26,311,*78
$GPGSV,3,3,12,21,47,117,17,22,23,272,,28,09,076,24,32,22,041,21*7E
$GPGLL,5556.43337,N,00315.26565,W,111040.00,A,A*78
$GPRMC,111041.00,A,5556.43333,N,00315.26507,W,0.556,,260724,,,A*63
$GPVTG,,T,,M,0.556,N,1.030,K,A*27
$GPGGA,111041.00,5556.43333,N,00315.26507,W,1,04,3.05,-36.2,M,49.9,M,,*50
$GPGSA,A,2,21,32,02,28,,,,,,,,,3.21,3.05,1.00*0E
$GPGSV,3,1,12,02,65,120,28,03,65,222,19,04,12,175,22,06,01,286,*75
$GPGSV,3,2,12,08,02,161,,14,13,250,,17,48,291,,19,26,311,*78
$GPGSV,3,3,12,21,47,117,18,22,23,272,,28,09,076,24,32,22,041,21*71
$GPGLL,5556.43333,N,00315.26507,W,111041.00,A,A*79
$GPRMC,111042.00,A,5556.43334,N,00315.26459,W,0.494,,260724,,,A*62
$GPVTG,,T,,M,0.494,N,0.915,K,A*27
$GPGGA,111042.00,5556.43334,N,00315.26459,W,1,04,3.05,-36.2,M,49.9,M,,*5E
$GPGSA,A,2,21,32,02,28,,,,,,,,,3.21,3.05,1.00*0E
$GPGSV,3,1,12,02,65,120,28,03,65,222,19,04,12,175,22,06,01,286,*75
$GPGSV,3,2,12,08,02,161,,14,13,250,,17,48,291,,19,26,311,*78
$GPGSV,3,3,12,21,47,117,18,22,23,272,,28,09,076,24,32,22,041,20*70
$GPGLL,5556.43334,N,00315.26459,W,111042.00,A,A*77
$GPRMC,111043.00,A,5556.43347,N,00315.26414,W,0.585,,260724,,,A*6F
$GPVTG,,T,,M,0.585,N,1.084,K,A*26
$GPGGA,111043.00,5556.43347,N,00315.26414,W,1,04,3.05,-36.2,M,49.9,M,,*52
$GPGSA,A,2,21,32,02,28,,,,,,,,,3.21,3.05,1.00*0E
$GPGSV,3,1,12,02,65,120,27,03,65,222,20,04,12,175,20,06,01,286,*72
$GPGSV,3,2,12,08,02,161,,14,13,250,,17,48,291,,19,26,311,*78
$GPGSV,3,3,12,21,47,117,19,22,23,272,,28,10,076,23,32,22,041,20*7E
$GPGLL,5556.43347,N,00315.26414,W,111043.00,A,A*7B
$GPRMC,111044.00,A,5556.43362,N,00315.26360,W,0.617,,260724,,,A*63
$GPVTG,,T,,M,0.617,N,1.143,K,A*24
$GPGGA,111044.00,5556.43362,N,00315.26360,W,1,04,3.05,-36.2,M,49.9,M,,*56
$GPGSA,A,2,21,32,02,28,,,,,,,,,3.21,3.05,1.00*0E
$GPGSV,3,1,12,02,65,120,28,03,65,222,19,04,12,175,21,06,01,286,*76
$GPGSV,3,2,12,08,02,161,,14,13,250,,17,48,291,,19,26,311,*78
$GPGSV,3,3,12,21,47,117,19,22,23,272,,28,10,076,23,32,22,041,20*7E
$GPGLL,5556.43362,N,00315.26360,W,111044.00,A,A*7F
$GPRMC,111045.00,A,5556.43328,N,00315.26267,W,0.270,,260724,,,A*6F
$GPVTG,,T,,M,0.270,N,0.500,K,A*23
$GPGGA,111045.00,5556.43328,N,00315.26267,W,1,04,3.05,-36.2,M,49.9,M,,*5F
$GPGSA,A,2,21,32,02,28,,,,,,,,,3.21,3.05,1.00*0E
$GPGSV,3,1,12,02,65,120,28,03,65,222,20,04,12,175,21,06,01,286,*7C
$GPGSV,3,2,12,08,02,161,,14,13,250,,17,48,291,,19,26,311,*78
$GPGSV,3,3,12,21,47,117,20,22,23,272,,28,10,076,23,32,22,041,20*74
$GPGLL,5556.43328,N,00315.26267,W,111045.00,A,A*76
$GPRMC,111046.00,A,5556.43464,N,00315.26398,W,1.276,,260724,,,A*65
$GPVTG,,T,,M,1.276,N,2.362,K,A*24
$GPGGA,111046.00,5556.43464,N,00315.26398,W,1,04,3.05,-36.2,M,49.9,M,,*52
$GPGSA,A,2,21,32,02,28,,,,,,,,,3.21,3.05,1.00*0E
$GPGSV,3,1,12,02,65,120,28,03,65,222,20,04,12,175,21,06,01,286,*7C
$GPGSV,3,2,12,08,02,161,,14,13,250,,17,48,291,,19,26,311,*78
$GPGSV,3,3,12,21,47,117,20,22,23,272,,28,10,076,23,32,22,041,20*74
$GPGLL,5556.43464,N,00315.26398,W,111046.00,A,A*7B
$GPRMC,111047.00,A,5556.43456,N,00315.26360,W,0.903,,260724,,,A*6A
$GPVTG,,T,,M,0.903,N,1.673,K,A*2A
$GPGGA,111047.00,5556.43456,N,00315.26360,W,1,04,3.05,-36.2,M,49.9,M,,*55
$GPGSA,A,2,21,32,02,28,,,,,,,,,3.21,3.05,1.00*0E
$GPGSV,3,1,12,02,65,120,28,03,65,222,20,04,12,175,20,06,01,286,*7D
$GPGSV,3,2,12,08,02,161,,14,13,250,,17,48,291,,19,26,311,*78
$GPGSV,3,3,12,21,47,117,20,22,23,272,,28,10,076,24,32,21,041,20*70
$GPGLL,5556.43456,N,00315.26360,W,111047.00,A,A*7C
$GPRMC,111048.00,A,5556.43474,N,00315.26316,W,0.809,,260724,,,A*6F
$GPVTG,,T,,M,0.809,N,1.499,K,A*27
$GPGGA,111048.00,5556.43474,N,00315.26316,W,1,04,3.05,-36.2,M,49.9,M,,*5B
$GPGSA,A,2,21,32,02,28,,,,,,,,,3.21,3.05,1.00*0E
$GPGSV,3,1,12,02,65,120,28,03,65,222,20,04,12,175,20,06,01,286,*7D
$GPGSV,3,2,12,08,02,161,,14,13,250,,17,48,291,,19,26,311,*78
$GPGSV,3,3,12,21,47,117,21,22,23,272,,28,10,076,24,32,21,041,20*71
$GPGLL,5556.43474,N,00315.26316,W,111048.00,A,A*72
$GPRMC,111049.00,A,5556.43477,N,00315.26271,W,0.613,,260724,,,A*68
$GPVTG,,T,,M,0.613,N,1.135,K,A*21
$GPGGA,111049.00,5556.43477,N,00315.26271,W,1,04,3.05,-36.2,M,49.9,M,,*59
$GPGSA,A,2,21,32,02,28,,,,,,,,,3.21,3.05,1.00*0E
$GPGSV,3,1,12,02,65,120,28,03,65,222,19,04,12,175,20,06,01,286,*77
$GPGSV,3,2,12,08,02,161,,14,13,250,,17,48,291,,19,26,311,*78
$GPGSV,3,3,12,21,47,117,21,22,23,272,16,28,10,076,24,32,21,041,19*7C
$GPGLL,5556.43477,N,00315.26271,W,111049.00,A,A*70
$GPRMC,111050.00,A,5556.43512,N,00315.26349,W,0.725,,260724,,,A*6C
$GPVTG,,T,,M,0.725,N,1.343,K,A*26
$GPGGA,111050.00,5556.43512,N,00315.26349,W,1,04,3.05,-36.2,M,49.9,M,,*59
$GPGSA,A,2,21,32,02,28,,,,,,,,,3.21,3.05,1.00*0E
$GPGSV,3,1,12,02,65,120,28,03,65,222,19,04,12,175,21,06,01,286,*76
$GPGSV,3,2,12,08,02,161,,14,13,250,,17,48,291,,19,26,311,*78
$GPGSV,3,3,12,21,47,117,22,22,23,272,16,28,10,076,24,32,21,041,19*7F
$GPGLL,5556.43512,N,00315.26349,W,111050.00,A,A*70
$GPRMC,111051.00,A,5556.43538,N,00315.26343,W,0.722,,260724,,,A*68
$GPVTG,,T,,M,0.722,N,1.337,K,A*22
$GPGGA,111051.00,5556.43538,N,00315.26343,W,1,04,3.05,-36.2,M,49.9,M,,*5A
$GPGSA,A,2,21,32,02,28,,,,,,,,,3.21,3.05,1.00*0E
$GPGSV,3,1,12,02,65,120,28,03,65,222,19,04,12,175,21,06,01,286,*76
$GPGSV,3,2,12,08,02,161,,14,13,250,,17,48,291,,19,26,311,*78
$GPGSV,3,3,12,21,47,117,23,22,23,272,15,28,10,076,25,32,21,041,20*76
$GPGLL,5556.43538,N,00315.26343,W,111051.00,A,A*73
$GPRMC,111052.00,A,5556.43585,N,00315.26381,W,0.911,,260724,,,A*6D
$GPVTG,,T,,M,0.911,N,1.688,K,A*2D
$GPGGA,111052.00,5556.43585,N,00315.26381,W,1,04,3.05,-36.2,M,49.9,M,,*51
$GPGSA,A,2,21,32,02,28,,,,,,,,,3.21,3.05,1.00*0E
$GPGSV,3,1,12,02,65,120,29,03,65,222,20,04,12,175,21,06,01,286,*7D
$GPGSV,3,2,12,08,02,161,,14,13,250,,17,48,291,,19,26,311,*78
$GPGSV,3,3,12,21,47,117,23,22,23,272,14,28,10,076,25,32,21,041,20*77
$GPGLL,5556.43585,N,00315.26381,W,111052.00,A,A*78
$GPRMC,111053.00,A,5556.43599,N,00315.26387,W,0.839,,260724,,,A*6C
$GPVTG,,T,,M,0.839,N,1.555,K,A*25
$GPGGA,111053.00,5556.43599,N,00315.26387,W,1,04,3.05,-36.2,M,49.9,M,,*5B
$GPGSA,A,2,21,32,02,28,,,,,,,,,3.21,3.05,1.00*0E
$GPGSV,3,1,12,02,65,120,29,03,65,222,21,04,12,175,22,06,01,286,*7F
$GPGSV,3,2,12,08,02,161,,14,13,250,,17,48,291,,19,26,311,*78
$GPGSV,3,3,12,21,47,117,23,22,23,272,16,28,10,076,25,32,21,041,21*74
$GPGLL,5556.43599,N,00315.26387,W,111053.00,A,A*72
$GPRMC,111054.00,A,5556.43608,N,00315.26399,W,0.797,,260724,,,A*64
$GPVTG,,T,,M,0.797,N,1.476,K,A*2E
$GPGGA,111054.00,5556.43608,N,00315.26399,W,1,04,3.05,-36.2,M,49.9,M,,*58
$GPGSA,A,2,21,32,02,28,,,,,,,,,3.21,3.05,1.00*0E
$GPGSV,3,1,12,02,65,120,28,03,65,222,21,04,12,175,22,06,01,286,*7E
$GPGSV,3,2,12,08,02,161,,14,13,250,,17,48,291,18,19,26,311,*71
$GPGSV,3,3,12,21,47,117,24,22,23,272,17,28,10,076,25,32,21,041,21*72
$GPGLL,5556.43608,N,00315.26399,W,111054.00,A,A*71
$GPRMC,111055.00,A,5556.43642,N,00315.26451,W,0.994,,260724,,,A*65
$GPVTG,,T,,M,0.994,N,1.840,K,A*2A
$GPGGA,111055.00,5556.43642,N,00315.26451,W,1,04,3.05,-36.2,M,49.9,M,,*54
$GPGSA,A,2,21,32,02,28,,,,,,,,,3.21,3.05,1.00*0E
$GPGSV,3,1,12,02,65,120,28,03,65,222,22,04,12,175,21,06,01,286,*7E
$GPGSV,3,2,12,08,02,161,,14,13,250,,17,48,291,16,19,26,311,*7F
$GPGSV,3,3,12,21,47,117,24,22,23,272,17,28,10,076,25,32,21,041,20*73
$GPGLL,5556.43642,N,00315.26451,W,111055.00,A,A*7D
$GPRMC,111056.00,A,5556.43606,N,00315.26399,W,0.535,,260724,,,A*62
$GPVTG,,T,,M,0.535,N,0.991,K,A*21
$GPGGA,111056.00,5556.43606,N,00315.26399,W,1,04,3.05,-36.2,M,49.9,M,,*54
$GPGSA,A,2,21,32,02,28,,,,,,,,,3.21,3.05,1.00*0E
$GPGSV,3,1,12,02,65,120,28,03,65,222,22,04,12,175,21,06,01,286,*7E
$GPGSV,3,2,12,08,02,161,,14,13,250,,17,48,291,14,19,26,311,*7D
$GPGSV,3,3,12,21,47,117,24,22,23,272,16,28,10,076,25,32,21,041,21*73
$GPGLL,5556.43606,N,00315.26399,W,111056.00,A,A*7D
$GPRMC,111057.00,A,5556.43651,N,00315.26447,W,0.860,,260724,,,A*68
$GPVTG,,T,,M,0.860,N,1.593,K,A*23
$GPGGA,111057.00,5556.43651,N,00315.26447,W,1,04,3.05,-36.2,M,49.9,M,,*53
$GPGSA,A,2,21,32,02,28,,,,,,,,,3.21,3.05,1.00*0E
$GPGSV,3,1,12,02,65,120,28,03,65,222,22,04,12,175,21,06,01,286,*7E
$GPGSV,3,2,12,08,02,161,,14,13,250,,17,48,291,13,19,26,311,*7A
$GPGSV,3,3,12,21,47,117,25,22,23,272,16,28,10,076,25,32,21,041,20*73
$GPGLL,5556.43651,N,00315.26447,W,111057.00,A,A*7A
$GPRMC,111058.00,A,5556.43609,N,00315.26382,W,0.419,,260724,,,A*66
$GPVTG,,T,,M,0.419,N,0.776,K,A*29
$GPGGA,111058.00,5556.43609,N,00315.26382,W,1,04,3.05,-36.2,M,49.9,M,,*5F
$GPGSA,A,2,21,32,02,28,,,,,,,,,3.21,3.05,1.00*0E
$GPGSV,3,1,12,02,65,120,28,03,65,222,23,04,12,175,22,06,01,286,*7C
$GPGSV,3,2,12,08,02,161,,14,13,250,,17,48,291,11,19,26,311,*78
$GPGSV,3,3,12,21,47,117,25,22,23,272,16,28,10,076,25,32,21,041,20*73
$GPGLL,5556.43609,N,00315.26382,W,111058.00,A,A*76
$GPRMC,111059.00,A,5556.43601,N,00315.26367,W,0.323,,260724,,,A*6A
$GPVTG,,T,,M,0.323,N,0.599,K,A*24
$GPGGA,111059.00,5556.43601,N,00315.26367,W,1,04,3.05,-36.2,M,49.9,M,,*5D
$GPGSA,A,2,21,32,02,28,,,,,,,,,3.21,3.05,1.00*0E
$GPGSV,3,1,12,02,65,120,29,03,65,222,22,04,12,175,22,06,01,286,*7C
$GPGSV,3,2,12,08,02,161,,14,13,250,,17,48,291,13,19,26,311,*7A
$GPGSV,3,3,12,21,47,117,25,22,23,272,17,28,10,076,25,32,21,041,21*73
$GPGLL,5556.43601,N,00315.26367,W,111059.00,A,A*74
$GPRMC,111100.00,A,5556.43550,N,00315.26283,W,0.172,,260724,,,A*6D
$GPVTG,,T,,M,0.172,N,0.318,K,A*2D
$GPGGA,111100.00,5556.43550,N,00315.26283,W,1,04,3.05,-36.2,M,49.9,M,,*5C
$GPGSA,A,2,21,32,02,28,,,,,,,,,3.21,3.05,1.00*0E
$GPGSV,3,1,12,02,65,120,28,03,65,222,22,04,12,175,22,06,01,286,*7D
$GPGSV,3,2,12,08,02,161,,14,13,250,,17,48,291,13,19,26,311,*7A
$GPGSV,3,3,12,21,47,117,25,22,23,272,17,28,10,076,25,32,21,041,21*73
$GPGLL,5556.43550,N,00315.26283,W,111100.00,A,A*75
$GPRMC,111101.00,A,5556.43516,N,00315.26184,W,0.463,,260724,,,A*6F
$GPVTG,,T,,M,0.463,N,0.857,K,A*28
$GPGGA,111101.00,5556.43516,N,00315.26184,W,1,04,3.05,-36.2,M,49.9,M,,*5B
$GPGSA,A,2,21,32,02,28,,,,,,,,,3.21,3.05,1.00*0E
$GPGSV,3,1,12,02,65,120,29,03,65,222,22,04,12,175,22,06,01,286,*7C
$GPGSV,3,2,12,08,02,161,,14,13,250,,17,48,291,13,19,26,311,*7A
$GPGSV,3,3,12,21,47,117,25,22,23,272,17,28,10,076,25,32,21,041,20*72
$GPGLL,5556.43516,N,00315.26184,W,111101.00,A,A*72
$GPRMC,111102.00,A,5556.43492,N,00315.26133,W,0.561,,260724,,,A*6E
$GPVTG,,T,,M,0.561,N,1.040,K,A*24
$GPGGA,111102.00,5556.43492,N,00315.26133,W,1,04,3.05,-36.2,M,49.9,M,,*59
$GPGSA,A,2,21,32,02,28,,,,,,,,,3.21,3.05,1.00*0E
$GPGSV,3,1,12,02,65,120,29,03,65,222,22,04,12,175,21,06,01,286,*7F
$GPGSV,3,2,12,08,02,161,,14,13,250,,17,48,291,11,19,26,311,*78
$GPGSV,3,3,12,21,47,117,25,22,23,272,17,28,10,076,25,32,21,041,20*72
$GPGLL,5556.43492,N,00315.26133,W,111102.00,A,A*70
$GPRMC,111103.00,A,5556.43465,N,00315.26055,W,0.742,,260724,,,A*65
$GPVTG,,T,,M,0.742,N,1.374,K,A*23
$GPGGA,111103.00,5556.43465,N,00315.26055,W,1,04,3.05,-36.2,M,49.9,M,,*51
$GPGSA,A,2,21,32,02,28,,,,,,,,,3.21,3.05,1.00*0E
$GPGSV,3,1,12,02,65,120,28,03,65,222,23,04,12,175,21,06,01,286,*7F
$GPGSV,3,2,12,08,02,161,,14,13,250,,17,48,291,10,19,26,311,*79
$GPGSV,3,3,12,21,47,117,25,22,23,272,17,28,10,076,25,32,21,041,20*72
$GPGLL,5556.43465,N,00315.26055,W,111103.00,A,A*78
$GPRMC,111104.00,A,5556.43410,N,00315.25981,W,1.064,,260724,,,A*61
$GPVTG,,T,,M,1.064,N,1.971,K,A*2E
$GPGGA,111104.00,5556.43410,N,00315.25981,W,1,04,3.05,-36.2,M,49.9,M,,*57
$GPGSA,A,2,21,32,02,28,,,,,,,,,3.21,3.05,1.00*0E
$GPGSV,3,1,12,02,65,120,28,03,65,222,22,04,12,175,21,06,01,286,*7E
$GPGSV,3,2,12,08,02,161,,14,13,250,,17,48,291,12,19,26,311,*7B
$GPGSV,3,3,12,21,47,117,25,22,23,272,17,28,10,076,24,32,21,041,20*73
$GPGLL,5556.43410,N,00315.25981,W,111104.00,A,A*7E
$GPRMC,111105.00,A,5556.43357,N,00315.25915,W,1.285,,260724,,,A*64
$GPVTG,,T,,M,1.285,N,2.379,K,A*22
$GPGGA,111105.00,5556.43357,N,00315.25915,W,1,04,3.05,-36.2,M,49.9,M,,*5F
$GPGSA,A,2,21,32,02,28,,,,,,,,,3.21,3.05,1.00*0E
$GPGSV,3,1,12,02,65,120,29,03,65,222,21,04,12,175,21,06,01,286,*7C
$GPGSV,3,2,12,08,02,161,,14,13,250,,17,48,291,14,19,26,311,*7D
$GPGSV,3,3,12,21,47,117,25,22,23,272,16,28,10,076,24,32,21,041,20*72
$GPGLL,5556.43357,N,00315.25915,W,111105.00,A,A*76
$GPRMC,111106.00,A,5556.43353,N,00315.25914,W,1.022,,260724,,,A*6D
$GPVTG,,T,,M,1.022,N,1.893,K,A*21
$GPGGA,111106.00,5556.43353,N,00315.25914,W,1,04,3.05,-36.2,M,49.9,M,,*59
$GPGSA,A,2,21,32,02,28,,,,,,,,,3.21,3.05,1.00*0E
$GPGSV,3,1,12,02,65,120,28,03,65,222,21,04,12,175,22,06,01,286,*7E
$GPGSV,3,2,12,08,02,161,,14,13,250,,17,48,291,15,19,26,311,*7C
$GPGSV,3,3,12,21,47,117,25,22,23,272,16,28,10,076,25,32,21,041,19*79
$GPGLL,5556.43353,N,00315.25914,W,111106.00,A,A*70
$GPRMC,111107.00,A,5556.43325,N,00315.25874,W,1.080,,260724,,,A*62
$GPVTG,,T,,M,1.080,N,2.000,K,A*28
$GPGGA,111107.00,5556.43325,N,00315.25874,W,1,04,3.05,-36.2,M,49.9,M,,*5E
$GPGSA,A,2,21,32,02,28,,,,,,,,,3.21,3.05,1.00*0E
$GPGSV,3,1,12,02,65,120,28,03,65,222,20,04,12,175,22,06,01,286,*7F
$GPGSV,3,2,12,08,02,161,,14,13,250,,17,48,291,14,19,26,311,*7D
$GPGSV,3,3,12,21,47,117,24,22,23,272,15,28,10,076,25,32,21,041,20*71
$GPGLL,5556.43325,N,00315.25874,W,111107.00,A,A*77
$GPRMC,111108.00,A,5556.43360,N,00315.25913,W,0.600,,260724,,,A*63
$GPVTG,,T,,M,0.600,N,1.111,K,A*25
$GPGGA,111108.00,5556.43360,N,00315.25913,W,1,04,3.05,-36.2,M,49.9,M,,*50
$GPGSA,A,2,21,32,02,28,,,,,,,,,3.21,3.05,1.00*0E
$GPGSV,3,1,12,02,65,120,28,03,65,222,21,04,12,175,22,06,01,286,*7E
$GPGSV,3,2,12,08,02,161,,14,13,250,,17,48,291,14,19,26,311,*7D
$GPGSV,3,3,12,21,47,117,23,22,23,272,15,28,10,076,25,32,21,041,21*77
$GPGLL,5556.43360,N,00315.25913,W,111108.00,A,A*79
$GPRMC,111109.00,A,5556.43344,N,00315.25888,W,0.603,,260724,,,A*64
$GPVTG,,T,,M,0.603,N,1.117,K,A*20
$GPGGA,111109.00,5556.43344,N,00315.25888,W,1,04,3.05,-36.2,M,49.9,M,,*54
$GPGSA,A,2,21,32,02,28,,,,,,,,,3.21,3.05,1.00*0E
$GPGSV,3,1,12,02,65,120,28,03,65,222,22,04,12,175,22,06,01,286,*7D
$GPGSV,3,2,12,08,02,161,,14,13,250,,17,48,291,13,19,26,311,*7A
$GPGSV,3,3,12,21,47,117,23,22,23,272,15,28,10,076,25,32,21,041,21*77
$GPGLL,5556.43344,N,00315.25888,W,111109.00,A,A*7D
$GPRMC,111110.00,A,5556.43287,N,00315.25885,W,0.833,,260724,,,A*62
$GPVTG,,T,,M,0.833,N,1.543,K,A*28
$GPGGA,111110.00,5556.43287,N,00315.25885,W,1,04,3.05,-36.2,M,49.9,M,,*5F
$GPGSA,A,2,21,32,02,28,,,,,,,,,3.21,3.05,1.00*0E
$GPGSV,3,1,12,02,65,120,28,03,65,222,22,04,12,175,21,06,01,286,*7E
$GPGSV,3,2,12,08,02,161,,14,13,250,,17,48,291,13,19,26,311,*7A
$GPGSV,3,3,12,21,47,117,23,22,23,272,15,28,10,076,24,32,21,041,20*77
$GPGLL,5556.43287,N,00315.25885,W,111110.00,A,A*76
$GPRMC,111111.00,A,5556.43226,N,00315.25818,W,1.161,,260724,,,A*63
$GPVTG,,T,,M,1.161,N,2.149,K,A*2A
$GPGGA,111111.00,5556.43226,N,00315.25818,W,1,04,3.05,-36.2,M,49.9,M,,*51
$GPGSA,A,2,21,32,02,28,,,,,,,,,3.21,3.05,1.00*0E
$GPGSV,3,1,12,02,65,120,28,03,65,222,22,04,12,175,21,06,01,286,*7E
$GPGSV,3,2,12,08,02,161,,14,13,250,,17,48,291,14,19,26,311,*7D
$GPGSV,3,3,12,21,47,117,22,22,23,272,15,28,10,076,23,32,21,041,20*71
$GPGLL,5556.43226,N,00315.25818,W,111111.00,A,A*78
$GPRMC,111112.00,A,5556.43231,N,00315.25839,W,0.845,,260724,,,A*6B
$GPVTG,,T,,M,0.845,N,1.565,K,A*2D
$GPGGA,111112.00,5556.43231,N,00315.25839,W,1,04,3.05,-36.2,M,49.9,M,,*57
$GPGSA,A,2,21,32,02,28,,,,,,,,,3.21,3.05,1.00*0E
$GPGSV,3,1,12,02,65,120,28,03,65,222,22,04,12,175,21,06,01,286,*7E
$GPGSV,3,2,12,08,02,161,,14,13,250,,17,48,291,14,19,26,311,*7D
$GPGSV,3,3,12,21,47,117,23,22,23,272,16,28,10,076,23,32,21,041,20*73
$GPGLL,5556.43231,N,00315.25839,W,111112.00,A,A*7E
$GPRMC,111113.00,A,5556.43222,N,00315.25827,W,0.719,,260724,,,A*61
$GPVTG,,T,,M,0.719,N,1.331,K,A*2C
$GPGGA,111113.00,5556.43222,N,00315.25827,W,1,04,3.05,-36.2,M,49.9,M,,*5B
$GPGSA,A,2,21,32,02,28,,,,,,,,,3.21,3.05,1.00*0E
$GPGSV,3,1,12,02,65,120,28,03,65,222,22,04,12,175,21,06,01,286,*7E
$GPGSV,3,2,12,08,02,161,,14,13,250,,17,48,291,14,19,26,311,*7D
$GPGSV,3,3,12,21,47,117,22,22,23,272,16,28,10,076,23,32,21,041,20*72
$GPGLL,5556.43222,N,00315.25827,W,111113.00,A,A*72
$GPRMC,111114.00,A,5556.43244,N,00315.25862,W,0.318,,260724,,,A*62
$GPVTG,,T,,M,0.318,N,0.590,K,A*25
$GPGGA,111114.00,5556.43244,N,00315.25862,W,1,04,3.05,-36.2,M,49.9,M,,*5D
$GPGSA,A,2,21,32,02,28,,,,,,,,,3.21,3.05,1.00*0E
$GPGSV,3,1,12,02,65,120,28,03,65,222,21,04,12,175,21,06,01,286,*7D
$GPGSV,3,2,12,08,02,161,,14,13,250,,17,48,291,14,19,26,311,*7D
$GPGSV,3,3,12,21,47,117,22,22,23,272,16,28,10,076,24,32,21,041,20*75
$GPGLL,5556.43244,N,00315.25862,W,111114.00,A,A*74
$GPRMC,111115.00,A,5556.43209,N,00315.25825,W,0.527,,260724,,,A*63
$GPVTG,,T,,M,0.527,N,0.975,K,A*28
$GPGGA,111115.00,5556.43209,N,00315.25825,W,1,04,3.05,-36.2,M,49.9,M,,*56
$GPGSA,A,2,21,32,02,28,,,,,,,,,3.21,3.05,1.00*0E
$GPGSV,3,1,12,02,65,120,28,03,65,222,21,04,12,175,21,06,01,286,*7D
$GPGSV,3,2,12,08,02,161,,14,13,250,,17,48,291,14,19,26,311,*7D
$GPGSV,3,3,12,21,47,117,22,22,23,272,15,28,10,076,24,32,21,041,20*76
$GPGLL,5556.43209,N,00315.25825,W,111115.00,A,A*7F
$GPRMC,111116.00,A,5556.43179,N,00315.25801,W,0.619,,260724,,,A*6C
$GPVTG,,T,,M,0.619,N,1.146,K,A*2F
$GPGGA,111116.00,5556.43179,N,00315.25801,W,1,04,3.05,-36.2,M,49.9,M,,*57
$GPGSA,A,2,21,32,02,28,,,,,,,,,3.21,3.05,1.00*0E
$GPGSV,3,1,12,02,65,120,28,03,65,222,21,04,12,175,21,06,01,286,*7D
$GPGSV,3,2,12,08,02,161,,14,13,250,,17,48,291,15,19,26,311,*7C
$GPGSV,3,3,12,21,47,117,22,22,23,272,13,28,10,076,24,32,21,041,20*70
$GPGLL,5556.43179,N,00315.25801,W,111116.00,A,A*7E
$GPRMC,111117.00,A,5556.43123,N,00315.25756,W,0.840,,260724,,,A*6D
$GPVTG,,T,,M,0.840,N,1.556,K,A*28
$GPGGA,111117.00,5556.43123,N,00315.25756,W,1,04,3.05,-36.2,M,49.9,M,,*54
$GPGSA,A,2,21,32,02,28,,,,,,,,,3.21,3.05,1.00*0E
$GPGSV,3,1,12,02,65,120,28,03,65,222,21,04,12,175,21,06,01,286,*7D
$GPGSV,3,2,12,08,02,161,,14,13,250,,17,48,291,15,19,26,311,*7C
$GPGSV,3,3,12,21,47,117,23,22,23,272,12,28,10,076,23,32,21,041,20*77
$GPGLL,5556.43123,N,00315.25756,W,111117.00,A,A*7D
$GPRMC,111118.00,A,5556.43164,N,00315.25808,W,0.296,,260724,,,A*64
$GPVTG,,T,,M,0.296,N,0.548,K,A*27
$GPGGA,111118.00,5556.43164,N,00315.25808,W,1,04,3.05,-36.2,M,49.9,M,,*5C
$GPGSA,A,2,21,32,02,28,,,,,,,,,3.21,3.05,1.00*0E
$GPGSV,3,1,12,02,65,120,28,03,65,222,21,04,12,175,21,06,01,286,*7D
$GPGSV,3,2,12,08,02,161,,14,13,250,,17,48,291,15,19,26,311,*7C
$GPGSV,3,3,12,21,47,117,22,22,23,272,11,28,10,076,23,32,21,041,19*7F
$GPGLL,5556.43164,N,00315.25808,W,111118.00,A,A*75
$GPRMC,111119.00,A,5556.43162,N,00315.25800,W,0.192,,260724,,,A*6C
$GPVTG,,T,,M,0.192,N,0.355,K,A*2A
$GPGGA,111119.00,5556.43162,N,00315.25800,W,1,04,3.05,-36.2,M,49.9,M,,*53
$GPGSA,A,2,21,32,02,28,,,,,,,,,3.21,3.05,1.00*0E
$GPGSV,3,1,12,02,65,120,28,03,65,222,21,04,12,175,21,06,01,286,*7D
$GPGSV,3,2,12,08,02,161,,14,13,250,,17,48,291,14,19,26,311,*7D
$GPGSV,3,3,12,21,47,117,22,22,23,272,11,28,10,076,22,32,21,041,18*7F
$GPGLL,5556.43162,N,00315.25800,W,111119.00,A,A*7A
$GPRMC,111120.00,A,5556.43132,N,00315.25691,W,0.525,,260724,,,A*6D
$GPVTG,,T,,M,0.525,N,0.972,K,A*2D
$GPGGA,111120.00,5556.43132,N,00315.25691,W,1,04,3.05,-36.2,M,49.9,M,,*5A
$GPGSA,A,2,21,32,02,28,,,,,,,,,3.21,3.05,1.00*0E
$GPGSV,3,1,12,02,65,120,28,03,65,222,21,04,12,175,21,06,01,286,*7D
$GPGSV,3,2,12,08,02,161,,14,13,250,,17,48,291,14,19,26,311,*7D
$GPGSV,3,3,12,21,47,117,22,22,23,272,08,28,10,076,22,32,21,041,17*78
$GPGLL,5556.43132,N,00315.25691,W,111120.00,A,A*73
$GPRMC,111121.00,A,5556.43130,N,00315.25684,W,0.502,,260724,,,A*6F
$GPVTG,,T,,M,0.502,N,0.930,K,A*2E
$GPGGA,111121.00,5556.43130,N,00315.25684,W,1,04,3.05,-36.2,M,49.9,M,,*5D
$GPGSA,A,2,21,32,02,28,,,,,,,,,3.21,3.05,1.00*0E
$GPGSV,3,1,12,02,65,120,27,03,65,222,21,04,12,175,22,06,01,286,*71
$GPGSV,3,2,12,08,02,161,,14,13,250,,17,48,291,14,19,26,311,*7D
$GPGSV,3,3,12,21,47,117,23,22,23,272,08,28,10,076,22,32,21,041,17*79
$GPGLL,5556.43130,N,00315.25684,W,111121.00,A,A*74
$GPRMC,111122.00,A,5556.43062,N,00315.25709,W,0.815,,260724,,,A*65
$GPVTG,,T,,M,0.815,N,1.509,K,A*22
$GPGGA,111122.00,5556.43062,N,00315.25709,W,1,04,3.05,-36.2,M,49.9,M,,*5C
$GPGSA,A,2,21,32,02,28,,,,,,,,,3.21,3.05,1.00*0E
$GPGSV,3,1,12,02,65,120,27,03,65,222,21,04,12,175,22,06,01,286,*71
$GPGSV,3,2,12,08,02,161,,14,13,250,,17,48,291,15,19,26,311,*7C
$GPGSV,3,3,12,21,47,117,23,22,23,272,11,28,10,076,22,32,21,041,16*70
$GPGLL,5556.43062,N,00315.25709,W,111122.00,A,A*75
$GPRMC,111123.00,A,5556.43081,N,00315.25749,W,0.476,,260724,,,A*64
$GPVTG,,T,,M,0.476,N,0.881,K,A*27
$GPGGA,111123.00,5556.43081,N,00315.25749,W,1,04,3.05,-36.2,M,49.9,M,,*54
$GPGSA,A,2,21,32,02,28,,,,,,,,,3.21,3.05,1.00*0E
$GPGSV,3,1,12,02,65,120,27,03,65,222,22,04,12,175,22,06,01,286,*72
$GPGSV,3,2,12,08,02,161,,14,13,250,,17,48,291,14,19,26,311,*7D
$GPGSV,3,3,12,21,47,117,22,22,23,272,15,28,10,076,22,32,21,041,18*7B
$GPGLL,5556.43081,N,00315.25749,W,111123.00,A,A*7D
$GPRMC,111124.00,A,5556.43146,N,00315.25744,W,0.226,,260724,,,A*67
$GPVTG,,T,,M,0.226,N,0.419,K,A*29
$GPGGA,111124.00,5556.43146,N,00315.25744,W,1,04,3.05,-36.2,M,49.9,M,,*54
$GPGSA,A,2,21,32,02,28,,,,,,,,,3.21,3.05,1.00*0E
$GPGSV,3,1,12,02,65,120,27,03,65,222,21,04,12,175,22,06,01,286,*71
$GPGSV,3,2,12,08,02,161,,14,13,250,,17,48,291,15,19,26,311,*7C
$GPGSV,3,3,12,21,47,117,22,22,23,272,15,28,10,076,22,32,21,041,18*7B
$GPGLL,5556.43146,N,00315.25744,W,111124.00,A,A*7D
$GPRMC,111125.00,A,5556.43139,N,00315.25625,W,0.435,,260724,,,A*6C
$GPVTG,,T,,M,0.435,N,0.806,K,A*2F
$GPGGA,111125.00,5556.43139,N,00315.25625,W,1,04,3.06,-36.2,M,49.9,M,,*58
$GPGSA,A,2,21,32,02,28,,,,,,,,,3.21,3.06,1.00*0D
$GPGSV,3,1,12,02,65,120,27,03,65,222,20,04,12,175,22,06,01,286,*70
$GPGSV,3,2,12,08,02,161,,14,13,250,,17,48,291,14,19,26,311,*7D
$GPGSV,3,3,12,21,47,117,22,22,23,272,15,28,10,076,22,32,21,041,17*74
$GPGLL,5556.43139,N,00315.25625,W,111125.00,A,A*72
$GPRMC,111126.00,A,5556.43182,N,00315.25535,W,0.905,,260724,,,A*63
$GPVTG,,T,,M,0.905,N,1.676,K,A*29
$GPGGA,111126.00,5556.43182,N,00315.25535,W,1,04,3.06,-36.2,M,49.9,M,,*59
$GPGSA,A,2,21,32,02,28,,,,,,,,,3.21,3.06,1.00*0D
$GPGSV,3,1,12,02,65,120,27,03,65,222,20,04,12,175,22,06,01,286,*70
$GPGSV,3,2,12,08,02,161,,14,13,250,,17,48,291,11,19,26,311,*78
$GPGSV,3,3,12,21,47,117,22,22,23,272,15,28,10,076,23,32,21,041,17*75
$GPGLL,5556.43182,N,00315.25535,W,111126.00,A,A*73
$GPRMC,111127.00,A,5556.43216,N,00315.25480,W,1.109,,260724,,,A*66
$GPVTG,,T,,M,1.109,N,2.055,K,A*28
$GPGGA,111127.00,5556.43216,N,00315.25480,W,1,04,3.06,-36.2,M,49.9,M,,*59
$GPGSA,A,2,21,32,02,28,,,,,,,,,3.21,3.06,1.00*0D
$GPGSV,3,1,12,02,65,120,27,03,65,222,20,04,12,175,22,06,01,286,*70
$GPGSV,3,2,12,08,02,161,,14,13,250,,17,48,291,10,19,26,311,*79
$GPGSV,3,3,12,21,47,117,22,22,23,272,15,28,10,076,23,32,21,041,17*75
$GPGLL,5556.43216,N,00315.25480,W,111127.00,A,A*73
$GPRMC,111128.00,A,5556.43251,N,00315.25551,W,0.928,,260724,,,A*6D
$GPVTG,,T,,M,0.928,N,1.719,K,A*2E
$GPGGA,111128.00,5556.43251,N,00315.25551,W,1,04,3.06,-36.2,M,49.9,M,,*58
$GPGSA,A,2,21,32,02,28,,,,,,,,,3.22,3.06,1.00*0E
$GPGSV,3,1,12,02,65,120,27,03,65,222,20,04,12,175,22,06,01,286,*70
$GPGSV,3,2,12,08,02,161,,14,13,250,,17,48,291,10,19,26,311,*79
$GPGSV,3,3,12,21,47,117,22,22,23,272,16,28,10,076,22,32,21,041,18*78
$GPGLL,5556.43251,N,00315.25551,W,111128.00,A,A*72
$GPRMC,111129.00,A,5556.43288,N,00315.25512,W,1.113,,260724,,,A*6E
$GPVTG,,T,,M,1.113,N,2.062,K,A*27
$GPGGA,111129.00,5556.43288,N,00315.25512,W,1,04,3.06,-36.2,M,49.9,M,,*5A
$GPGSA,A,2,21,32,02,28,,,,,,,,,3.22,3.06,1.00*0E
$GPGSV,3,1,12,02,65,120,27,03,65,222,20,04,12,175,21,06,01,286,*73
$GPGSV,3,2,12,08,02,161,,14,13,250,,17,48,291,10,19,26,311,*79
$GPGSV,3,3,12,21,47,117,22,22,23,272,16,28,10,076,22,32,21,041,17*77
$GPGLL,5556.43288,N,00315.25512,W,111129.00,A,A*70
$GPRMC,111130.00,A,5556.43356,N,00315.25559,W,1.276,,260724,,,A*6B
$GPVTG,,T,,M,1.276,N,2.364,K,A*22
$GPGGA,111130.00,5556.43356,N,00315.25559,W,1,04,3.06,-36.2,M,49.9,M,,*5F
$GPGSA,A,2,21,32,02,28,,,,,,,,,3.22,3.06,1.00*0E
$GPGSV,3,1,12,02,65,120,27,03,65,222,19,04,12,174,21,06,01,286,*78
$GPGSV,3,2,12,08,02,161,,14,13,250,,17,48,291,10,19,26,311,*79
$GPGSV,3,3,12,21,47,117,22,22,23,272,16,28,10,076,23,32,21,041,18*79
$GPGLL,5556.43356,N,00315.25559,W,111130.00,A,A*75
$GPRMC,111131.00,A,5556.43357,N,00315.25530,W,1.074,,260724,,,A*64
$GPVTG,,T,,M,1.074,N,1.989,K,A*28
$GPGGA,111131.00,5556.43357,N,00315.25530,W,1,04,3.06,-36.2,M,49.9,M,,*50
$GPGSA,A,2,21,32,02,28,,,,,,,,,3.22,3.06,1.00*0E
$GPGSV,3,1,12,02,65,120,27,03,65,222,20,04,12,174,21,06,01,286,*72
$GPGSV,3,2,12,08,02,161,,14,13,250,,17,48,291,,19,26,311,*78
$GPGSV,3,3,12,21,47,117,21,22,23,272,15,28,10,076,23,32,21,041,18*79
$GPGLL,5556.43357,N,00315.25530,W,111131.00,A,A*7A
$GPRMC,111132.00,A,5556.43502,N,00315.25644,W,1.930,,260724,,,A*68
$GPVTG,,T,,M,1.930,N,3.575,K,A*2C
$GPGGA,111132.00,5556.43502,N,00315.25644,W,1,04,3.06,-36.2,M,49.9,M,,*55
$GPGSA,A,2,21,32,02,28,,,,,,,,,3.22,3.06,1.00*0E
$GPGSV,3,1,12,02,65,120,27,03,65,222,18,04,12,174,21,06,02,287,*7B
$GPGSV,3,2,12,08,02,161,,14,13,250,,17,48,291,,19,26,311,*78
$GPGSV,3,3,12,21,47,117,21,22,23,272,13,28,10,076,23,32,21,041,18*7F
$GPGLL,5556.43502,N,00315.25644,W,111132.00,A,A*7F
$GPRMC,111133.00,A,5556.43466,N,00315.25448,W,1.592,,260724,,,A*60
$GPVTG,,T,,M,1.592,N,2.948,K,A*2B
$GPGGA,111133.00,5556.43466,N,00315.25448,W,1,04,3.06,-36.2,M,49.9,M,,*59
$GPGSA,A,2,21,32,02,28,,,,,,,,,3.22,3.06,1.00*0E
$GPGSV,3,1,12,02,65,120,27,03,65,222,19,04,12,174,21,06,02,287,*7A
$GPGSV,3,2,12,08,02,161,,14,13,250,,17,48,291,,19,26,311,*78
$GPGSV,3,3,12,21,47,117,20,22,23,272,12,28,10,076,23,32,21,041,17*70
$GPGLL,5556.43466,N,00315.25448,W,111133.00,A,A*73
$GPRMC,111134.00,A,5556.43502,N,00315.25474,W,1.523,,260724,,,A*61
$GPVTG,,T,,M,1.523,N,2.821,K,A*2F
$GPGGA,111134.00,5556.43502,N,00315.25474,W,1,04,3.06,-36.2,M,49.9,M,,*52
$GPGSA,A,2,21,32,02,28,,,,,,,,,3.22,3.06,1.00*0E
$GPGSV,3,1,12,02,65,120,27,03,65,222,18,04,12,174,21,06,02,287,*7B
$GPGSV,3,2,12,08,02,161,,14,13,250,,17,48,291,,19,26,311,*78
$GPGSV,3,3,12,21,47,117,19,22,23,272,13,28,10,076,23,32,21,041,17*7B
$GPGLL,5556.43502,N,00315.25474,W,111134.00,A,A*78
$GPRMC,111135.00,A,5556.43513,N,00315.25351,W,1.580,,260724,,,A*69
$GPVTG,,T,,M,1.580,N,2.925,K,A*23
$GPGGA,111135.00,5556.43513,N,00315.25351,W,1,04,3.06,-36.2,M,49.9,M,,*53
$GPGSA,A,2,21,32,02,28,,,,,,,,,3.22,3.06,1.00*0E
$GPGSV,3,1,12,02,65,120,27,03,65,222,19,04,12,174,21,06,02,287,*7A
$GPGSV,3,2,12,08,02,161,,14,13,250,,17,48,291,,19,26,311,*78
$GPGSV,3,3,12,21,47,117,19,22,23,272,13,28,10,076,22,32,21,041,16*7B
$GPGLL,5556.43513,N,00315.25351,W,111135.00,A,A*79
$GPRMC,111136.00,A,5556.43554,N,00315.25355,W,1.542,,260724,,,A*63
$GPVTG,,T,,M,1.542,N,2.856,K,A*28
$GPGGA,111136.00,5556.43554,N,00315.25355,W,1,04,3.06,-36.2,M,49.9,M,,*57
$GPGSA,A,2,21,32,02,28,,,,,,,,,3.22,3.06,1.00*0E
$GPGSV,3,1,12,02,65,120,27,03,65,222,19,04,12,174,20,06,02,287,*7B
$GPGSV,3,2,12,08,02,161,,14,13,250,,17,48,291,,19,26,311,*78
$GPGSV,3,3,12,21,47,117,18,22,23,272,15,28,10,076,22,32,21,041,16*7C
$GPGLL,5556.43554,N,00315.25355,W,111136.00,A,A*7D
$GPRMC,111137.00,A,5556.43546,N,00315.25280,W,1.327,,260724,,,A*6D
$GPVTG,,T,,M,1.327,N,2.458,K,A*2F
$GPGGA,111137.00,5556.43546,N,00315.25280,W,1,04,3.06,-36.2,M,49.9,M,,*5C
$GPGSA,A,2,21,32,02,28,,,,,,,,,3.22,3.06,1.00*0E
$GPGSV,3,1,12,02,65,120,27,03,65,222,19,04,12,174,21,06,02,287,*7A
$GPGSV,3,2,12,08,02,161,,14,13,250,,17,48,291,,19,26,311,*78
$GPGSV,3,3,12,21,47,117,19,22,23,272,16,28,10,076,23,32,21,041,16*7F
$GPGLL,5556.43546,N,00315.25280,W,111137.00,A,A*76
$GPRMC,111138.00,A,5556.43529,N,00315.25217,W,1.073,,260724,,,A*67
$GPVTG,,T,,M,1.073,N,1.987,K,A*21
$GPGGA,111138.00,5556.43529,N,00315.25217,W,1,04,3.06,-36.2,M,49.9,M,,*54
$GPGSA,A,2,21,32,02,28,,,,,,,,,3.22,3.06,1.00*0E
$GPGSV,3,1,12,02,65,120,27,03,65,222,18,04,12,174,21,06,02,287,*7B
$GPGSV,3,2,12,08,02,161,,14,13,250,,17,48,291,,19,26,311,*78
$GPGSV,3,3,12,21,47,117,19,22,23,272,15,28,10,076,22,32,21,041,16*7D
$GPGLL,5556.43529,N,00315.25217,W,111138.00,A,A*7E
$GPRMC,111139.00,A,5556.43646,N,00315.25188,W,1.851,,260724,,,A*61
$GPVTG,,T,,M,1.851,N,3.428,K,A*23
$GPGGA,111139.00,5556.43646,N,00315.25188,W,1,04,3.06,-36.2,M,49.9,M,,*5A
$GPGSA,A,2,21,32,02,28,,,,,,,,,3.22,3.06,1.00*0E
$GPGSV,3,1,12,02,65,120,27,03,65,222,17,04,12,174,22,06,02,287,*77
$GPGSV,3,2,12,08,02,161,,14,13,250,,17,48,291,,19,26,311,*78
$GPGSV,3,3,12,21,47,117,19,22,23,272,15,28,10,076,21,32,21,041,15*7D
$GPGLL,5556.43646,N,00315.25188,W,111139.00,A,A*70
$GPRMC,111140.00,A,5556.43631,N,00315.25021,W,1.761,,260724,,,A*61
$GPVTG,,T,,M,1.761,N,3.261,K,A*24
$GPGGA,111140.00,5556.43631,N,00315.25021,W,1,04,3.06,-36.2,M,49.9,M,,*56
$GPGSA,A,2,21,32,02,28,,,,,,,,,3.22,3.06,1.00*0E
$GPGSV,3,1,12,02,65,120,27,03,65,222,17,04,12,174,22,06,02,287,*77
$GPGSV,3,2,12,08,02,161,,14,13,249,,17,48,291,,19,26,311,*70
$GPGSV,3,3,12,21,47,117,19,22,23,272,14,28,10,076,21,32,21,041,14*7D
$GPGLL,5556.43631,N,00315.25021,W,111140.00,A,A*7C
$GPRMC,111141.00,A,5556.43727,N,00315.25111,W,1.952,,260724,,,A*6A
$GPVTG,,T,,M,1.952,N,3.614,K,A*2C
$GPGGA,111141.00,5556.43727,N,00315.25111,W,1,04,3.06,-36.2,M,49.9,M,,*53
$GPGSA,A,2,21,32,02,28,,,,,,,,,3.22,3.06,1.00*0E
$GPGSV,3,1,12,02,65,120,27,03,65,222,18,04,12,174,22,06,02,287,*78
$GPGSV,3,2,12,08,02,161,,14,13,249,,17,48,291,,19,26,311,*70
$GPGSV,3,3,12,21,47,117,17,22,23,272,14,28,10,076,21,32,21,041,14*73
$GPGLL,5556.43727,N,00315.25111,W,111141.00,A,A*79
$GPRMC,111142.00,A,5556.43748,N,00315.25149,W,1.668,,260724,,,A*6B
$GPVTG,,T,,M,1.668,N,3.090,K,A*20
$GPGGA,111142.00,5556.43748,N,00315.25149,W,1,04,3.06,-36.2,M,49.9,M,,*54
$GPGSA,A,2,21,32,02,28,,,,,,,,,3.22,3.06,1.00*0E
$GPGSV,3,1,12,02,65,120,27,03,65,222,19,04,12,174,22,06,02,287,*79
$GPGSV,3,2,12,08,02,161,,14,13,249,,17,48,291,,19,26,311,*70
$GPGSV,3,3,12,21,47,117,18,22,23,272,13,28,10,076,21,32,21,041,14*7B
$GPGLL,5556.43748,N,00315.25149,W,111142.00,A,A*7E
$GPRMC,111143.00,A,5556.43758,N,00315.25183,W,1.406,,260724,,,A*67
$GPVTG,,T,,M,1.406,N,2.604,K,A*20
$GPGGA,111143.00,5556.43758,N,00315.25183,W,1,04,3.06,-36.2,M,49.9,M,,*52
$GPGSA,A,2,21,32,02,28,,,,,,,,,3.22,3.06,1.00*0E
$GPGSV,3,1,12,02,65,120,27,03,65,222,18,04,12,174,22,06,02,287,*78
$GPGSV,3,2,12,08,02,161,,14,13,249,,17,49,290,,19,26,311,*70
$GPGSV,3,3,12,21,47,117,18,22,23,272,13,28,10,076,22,32,21,041,15*79
$GPGLL,5556.43758,N,00315.25183,W,111143.00,A,A*78
$GPRMC,111144.00,A,5556.43826,N,00315.25254,W,1.607,,260724,,,A*6C
$GPVTG,,T,,M,1.607,N,2.976,K,A*29
$GPGGA,111144.00,5556.43826,N,00315.25254,W,1,04,3.06,-36.2,M,49.9,M,,*5A
$GPGSA,A,2,21,32,02,28,,,,,,,,,3.22,3.06,1.00*0E
$GPGSV,3,1,12,02,65,120,27,03,65,222,19,04,12,174,22,06,02,287,*79
$GPGSV,3,2,12,08,02,161,,14,13,249,,17,49,290,,19,26,311,*70
$GPGSV,3,3,12,21,47,117,19,22,23,272,13,28,10,076,23,32,21,041,16*7A
$GPGLL,5556.43826,N,00315.25254,W,111144.00,A,A*70
$GPRMC,111145.00,A,5556.43923,N,00315.25337,W,1.972,,260724,,,A*60
$GPVTG,,T,,M,1.972,N,3.652,K,A*2C
$GPGGA,111145.00,5556.43923,N,00315.25337,W,1,04,3.06,-36.2,M,49.9,M,,*5B
$GPGSA,A,2,21,32,02,28,,,,,,,,,3.22,3.06,1.00*0E
$GPGSV,3,1,12,02,65,120,27,03,65,222,19,04,12,174,22,06,02,287,*79
$GPGSV,3,2,12,08,02,161,,14,13,249,,17,49,290,,19,26,310,*71
$GPGSV,3,3,12,21,47,117,20,22,23,272,13,28,10,076,23,32,21,041,15*73
$GPGLL,5556.43923,N,00315.25337,W,111145.00,A,A*71
$GPRMC,111146.00,A,5556.43914,N,00315.25278,W,1.575,,260724,,,A*66
$GPVTG,,T,,M,1.575,N,2.917,K,A*28
$GPGGA,111146.00,5556.43914,N,00315.25278,W,1,04,3.06,-36.2,M,49.9,M,,*56
$GPGSA,A,2,21,32,02,28,,,,,,,,,3.22,3.06,1.00*0E
$GPGSV,3,1,12,02,65,120,27,03,65,222,20,04,12,174,22,06,02,287,*73
$GPGSV,3,2,12,08,02,161,,14,13,249,,17,49,290,,19,26,310,*71
$GPGSV,3,3,12,21,47,117,20,22,23,272,14,28,10,076,22,32,21,041,15*75
$GPGLL,5556.43914,N,00315.25278,W,111146.00,A,A*7C
$GPRMC,111147.00,A,5556.43967,N,00315.25375,W,1.679,,260724,,,A*60
$GPVTG,,T,,M,1.679,N,3.110,K,A*29
$GPGGA,111147.00,5556.43967,N,00315.25375,W,1,04,3.06,-36.2,M,49.9,M,,*5F
$GPGSA,A,2,21,32,02,28,,,,,,,,,3.22,3.06,1.00*0E
$GPGSV,3,1,12,02,65,120,27,03,65,222,19,04,12,174,22,06,02,287,*79
$GPGSV,3,2,12,08,02,161,,14,13,249,,17,49,290,,19,26,310,*71
$GPGSV,3,3,12,21,46,117,20,22,23,272,15,28,10,076,23,32,21,041,17*76
$GPGLL,5556.43967,N,00315.25375,W,111147.00,A,A*75
$GPRMC,111148.00,A,5556.43959,N,00315.25284,W,1.374,,260724,,,A*65
$GPVTG,,T,,M,1.374,N,2.544,K,A*25
$GPGGA,111148.00,5556.43959,N,00315.25284,W,1,04,3.06,-36.2,M,49.9,M,,*52
$GPGSA,A,2,21,32,02,28,,,,,,,,,3.22,3.06,1.00*0E
$GPGSV,3,1,12,02,65,120,26,03,65,222,19,04,12,174,21,06,02,287,*7B
$GPGSV,3,2,12,08,02,161,,14,13,249,,17,49,290,,19,26,310,*71
$GPGSV,3,3,12,21,46,117,20,22,22,272,13,28,10,076,23,32,21,041,17*71
$GPGLL,5556.43959,N,00315.25284,W,111148.00,A,A*78
$GPRMC,111149.00,A,5556.44003,N,00315.25290,W,1.464,,260724,,,A*66
$GPVTG,,T,,M,1.464,N,2.711,K,A*21
$GPGGA,111149.00,5556.44003,N,00315.25290,W,1,04,3.06,-36.2,M,49.9,M,,*57
$GPGSA,A,2,21,32,02,28,,,,,,,,,3.22,3.06,1.00*0E
$GPGSV,3,1,12,02,65,120,26,03,65,222,19,04,12,174,21,06,02,287,*7B
$GPGSV,3,2,12,08,02,161,,14,13,249,,17,49,290,18,19,26,310,*78
$GPGSV,3,3,12,21,46,117,20,22,22,272,14,28,10,076,24,32,21,041,16*70
$GPGLL,5556.44003,N,00315.25290,W,111149.00,A,A*7D
$GPRMC,111150.00,A,5556.44234,N,00315.25638,W,2.761,,260724,,,A*6B
$GPVTG,,T,,M,2.761,N,5.114,K,A*20
$GPGGA,111150.00,5556.44234,N,00315.25638,W,1,04,3.06,-36.2,M,49.9,M,,*5F
$GPGSA,A,2,21,32,02,28,,,,,,,,,3.22,3.06,1.00*0E
$GPGSV,3,1,12,02,65,120,26,03,65,222,20,04,12,174,21,06,02,287,*71
$GPGSV,3,2,12,08,02,161,,14,13,249,,17,49,290,18,19,26,310,*78
$GPGSV,3,3,12,21,46,117,21,22,22,272,13,28,10,076,25,32,21,041,14*75
$GPGLL,5556.44234,N,00315.25638,W,111150.00,A,A*75
$GPRMC,111151.00,A,5556.44332,N,00315.25834,W,2.957,,260724,,,A*64
$GPVTG,,T,,M,2.957,N,5.477,K,A*2B
$GPGGA,111151.00,5556.44332,N,00315.25834,W,1,04,3.06,-36.2,M,49.9,M,,*5B
$GPGSA,A,2,21,32,02,28,,,,,,,,,3.22,3.06,1.00*0E
$GPGSV,3,1,12,02,65,120,26,03,65,222,21,04,12,174,21,06,02,287,*70
$GPGSV,3,2,12,08,02,161,,14,13,249,,17,49,290,17,19,26,310,*77
$GPGSV,3,3,12,21,46,117,20,22,22,272,11,28,10,076,25,32,21,041,13*71
$GPGLL,5556.44332,N,00315.25834,W,111151.00,A,A*71
$GPRMC,111152.00,A,5556.44533,N,00315.26164,W,3.903,320.87,260724,,,A*7F
$GPVTG,320.87,T,,M,3.903,N,7.228,K,A*35
$GPGGA,111152.00,5556.44533,N,00315.26164,W,1,04,3.06,-36.2,M,49.9,M,,*50
$GPGSA,A,2,21,32,02,28,,,,,,,,,3.22,3.06,1.00*0E
$GPGSV,3,1,12,02,65,120,26,03,65,222,22,04,12,174,22,06,02,287,*70
$GPGSV,3,2,12,08,02,161,,14,13,249,,17,49,290,16,19,26,310,*76
$GPGSV,3,3,12,21,46,117,21,22,22,272,10,28,10,076,25,32,21,041,11*73
$GPGLL,5556.44533,N,00315.26164,W,111152.00,A,A*7A
$GPRMC,111153.00,A,5556.44547,N,00315.26219,W,3.545,324.07,260724,,,A*76
$GPVTG,324.07,T,,M,3.545,N,6.566,K,A*3B
$GPGGA,111153.00,5556.44547,N,00315.26219,W,1,03,6.17,-36.2,M,49.9,M,,*59
$GPGSA,A,2,21,02,28,,,,,,,,,,6.25,6.17,1.00*08
$GPGSV,3,1,12,02,65,120,27,03,65,222,21,04,12,174,21,06,02,287,*71
$GPGSV,3,2,12,08,02,161,,14,13,249,,17,49,290,17,19,26,310,*77
$GPGSV,3,3,12,21,46,117,21,22,22,272,09,28,10,076,25,32,21,041,09*72
$GPGLL,5556.44547,N,00315.26219,W,111153.00,A,A*71
$GPRMC,111154.00,A,5556.44734,N,00315.26523,W,4.248,325.93,260724,,,A*78
$GPVTG,325.93,T,,M,4.248,N,7.867,K,A*37
$GPGGA,111154.00,5556.44734,N,00315.26523,W,1,04,3.06,-36.2,M,49.9,M,,*54
$GPGSA,A,2,21,32,02,28,,,,,,,,,3.22,3.06,1.00*0E
$GPGSV,3,1,12,02,65,120,27,03,65,222,21,04,12,174,22,06,02,287,*72
$GPGSV,3,2,12,08,02,161,,14,13,249,,17,49,290,17,19,26,310,*77
$GPGSV,3,3,12,21,46,117,22,22,22,272,09,28,10,076,25,32,21,041,11*78
$GPGLL,5556.44734,N,00315.26523,W,111154.00,A,A*7E
$GPRMC,111155.00,A,5556.45036,N,00315.27000,W,5.594,326.77,260724,,,A*76
$GPVTG,326.77,T,,M,5.594,N,10.361,K,A*02
$GPGGA,111155.00,5556.45036,N,00315.27000,W,1,04,3.06,-36.2,M,49.9,M,,*54
$GPGSA,A,2,21,32,02,28,,,,,,,,,3.22,3.06,1.00*0E
$GPGSV,3,1,12,02,65,120,27,03,65,222,22,04,12,174,22,06,02,287,*71
$GPGSV,3,2,12,08,02,161,,14,13,249,,17,49,290,17,19,26,310,*77
$GPGSV,3,3,12,21,46,117,23,22,22,272,,28,10,076,25,32,21,041,10*71
$GPGLL,5556.45036,N,00315.27000,W,111155.00,A,A*7E
$GPRMC,111156.00,A,5556.45128,N,00315.27174,W,5.536,326.10,260724,,,A*70
$GPVTG,326.10,T,,M,5.536,N,10.252,K,A*0A
$GPGGA,111156.00,5556.45128,N,00315.27174,W,1,03,6.17,-36.2,M,49.9,M,,*59
$GPGSA,A,2,21,02,28,,,,,,,,,,6.25,6.17,1.00*08
$GPGSV,3,1,12,02,65,120,27,03,65,222,22,04,12,174,22,06,02,287,*71
$GPGSV,3,2,12,08,02,161,,14,13,249,,17,49,290,16,19,26,310,*76
$GPGSV,3,3,12,21,46,117,24,22,22,272,,28,10,076,25,32,21,041,09*7E
$GPGLL,5556.45128,N,00315.27174,W,111156.00,A,A*71
$GPRMC,111157.00,A,5556.45158,N,00315.27254,W,5.124,324.77,260724,,,A*73
$GPVTG,324.77,T,,M,5.124,N,9.489,K,A*36
$GPGGA,111157.00,5556.45158,N,00315.27254,W,1,03,6.17,-36.2,M,49.9,M,,*5E
$GPGSA,A,2,21,02,28,,,,,,,,,,6.25,6.17,1.00*08
$GPGSV,3,1,12,02,65,120,26,03,65,222,23,04,12,174,21,06,02,287,*72
$GPGSV,3,2,12,08,02,161,,14,13,249,,17,49,290,16,19,26,310,*76
$GPGSV,3,3,12,21,46,117,24,22,22,272,,28,10,076,25,32,21,041,09*7E
$GPGLL,5556.45158,N,00315.27254,W,111157.00,A,A*76
$GPRMC,111158.00,A,5556.45168,N,00315.27295,W,4.679,323.44,260724,,,A*7B
$GPVTG,323.44,T,,M,4.679,N,8.665,K,A*3E
$GPGGA,111158.00,5556.45168,N,00315.27295,W,1,03,6.17,-36.2,M,49.9,M,,*5F
$GPGSA,A,2,21,02,28,,,,,,,,,,6.25,6.17,1.00*08
$GPGSV,3,1,12,02,65,120,26,03,65,222,23,04,12,174,22,06,02,287,*71
$GPGSV,3,2,12,08,02,161,,14,13,249,,17,49,290,17,19,26,310,*77
$GPGSV,3,3,12,21,46,117,25,22,22,272,,28,10,076,25,32,21,040,08*7F
$GPGLL,5556.45168,N,00315.27295,W,111158.00,A,A*77
$GPRMC,111159.00,A,5556.45159,N,00315.27309,W,4.205,322.02,260724,,,A*70
$GPVTG,322.02,T,,M,4.205,N,7.787,K,A*30
$GPGGA,111159.00,5556.45159,N,00315.27309,W,1,03,6.17,-36.2,M,49.9,M,,*58
$GPGSA,A,2,21,02,28,,,,,,,,,,6.25,6.17,1.00*08
$GPGSV,3,1,12,02,65,120,26,03,65,222,23,04,12,174,21,06,02,287,*72
$GPGSV,3,2,12,08,02,161,,14,13,249,,17,49,290,17,19,26,310,*77
$GPGSV,3,3,12,21,46,117,25,22,22,272,,28,10,076,25,32,21,040,08*7F
$GPGLL,5556.45159,N,00315.27309,W,111159.00,A,A*70
$GPRMC,111200.00,A,5556.45153,N,00315.27335,W,3.838,320.51,260724,,,A*7D
$GPVTG,320.51,T,,M,3.838,N,7.108,K,A*36
$GPGGA,111200.00,5556.45153,N,00315.27335,W,1,03,6.17,-36.2,M,49.9,M,,*52
$GPGSA,A,2,21,02,28,,,,,,,,,,6.25,6.17,1.00*08
$GPGSV,3,1,12,02,65,120,26,03,65,222,22,04,12,174,21,06,02,287,*73
$GPGSV,3,2,12,08,02,161,,14,13,249,,17,49,290,17,19,26,310,*77
$GPGSV,3,3,12,21,46,117,25,22,22,272,,28,10,076,25,32,21,040,08*7F
$GPGLL,5556.45153,N,00315.27335,W,111200.00,A,A*7A
$GPRMC,111201.00,A,5556.45163,N,00315.27418,W,3.665,318.29,260724,,,A*75
$GPVTG,318.29,T,,M,3.665,N,6.787,K,A*34
$GPGGA,111201.00,5556.45163,N,00315.27418,W,1,03,6.17,-36.2,M,49.9,M,,*58
$GPGSA,A,2,21,02,28,,,,,,,,,,6.25,6.17,1.00*08
$GPGSV,3,1,12,02,65,120,25,03,65,222,23,04,12,174,21,06,02,287,*71
$GPGSV,3,2,12,08,02,161,,14,13,249,,17,49,290,16,19,26,310,*76
$GPGSV,3,3,12,21,46,117,25,22,22,272,,28,10,076,25,32,21,040,08*7F
$GPGLL,5556.45163,N,00315.27418,W,111201.00,A,A*70
$GPRMC,111202.00,A,5556.45957,N,00315.28590,W,6.539,320.46,260724,,,A*7A
$GPVTG,320.46,T,,M,6.539,N,12.111,K,A*05
$GPGGA,111202.00,5556.45957,N,00315.28590,W,1,04,3.06,-36.2,M,49.9,M,,*58
$GPGSA,A,2,21,32,02,28,,,,,,,,,3.22,3.06,1.00*0E
$GPGSV,3,1,12,02,65,120,25,03,65,222,22,04,12,174,21,06,02,287,*70
$GPGSV,3,2,12,08,02,161,,14,13,249,,17,49,290,15,19,26,310,*75
$GPGSV,3,3,12,21,46,117,25,22,22,272,,28,10,076,25,32,21,040,09*7E
$GPGLL,5556.45957,N,00315.28590,W,111202.00,A,A*72
$GPRMC,111203.00,A,5556.46851,N,00315.29889,W,9.546,322.57,260724,,,A*7E
$GPVTG,322.57,T,,M,9.546,N,17.679,K,A*0C
$GPGGA,111203.00,5556.46851,N,00315.29889,W,1,04,3.06,-36.2,M,49.9,M,,*59
$GPGSA,A,2,21,32,02,28,,,,,,,,,3.22,3.06,1.00*0E
$GPGSV,3,1,12,02,65,120,25,03,65,222,21,04,12,174,21,06,02,287,*73
$GPGSV,3,2,12,08,02,161,,14,13,249,,17,49,290,14,19,26,310,*74
$GPGSV,3,3,12,21,46,117,25,22,22,272,,28,10,076,25,32,21,040,09*7E
$GPGLL,5556.46851,N,00315.29889,W,111203.00,A,A*73
$GPRMC,111204.00,A,5556.47866,N,00315.31382,W,12.815,323.56,260724,,,A*44
$GPVTG,323.56,T,,M,12.815,N,23.734,K,A*32
$GPGGA,111204.00,5556.47866,N,00315.31382,W,1,04,3.06,-36.2,M,49.9,M,,*52
