$GPRMC,124435.00,A,5556.44468,N,00315.15043,W,0.959,,250724,,,A*69
$GPVTG,,T,,M,0.959,N,1.776,K,A*21
$GPGGA,124435.00,5556.44468,N,00315.15043,W,1,07,1.36,72.7,M,49.9,M,,*73
$GPGSA,A,3,28,04,21,31,03,17,02,,,,,,2.30,1.36,1.86*00
$GPGSV,3,1,12,02,25,136,27,03,70,078,26,04,52,163,21,06,37,297,*79
$GPGSV,3,2,12,09,24,196,,12,11,334,,17,44,232,10,19,47,270,*77
$GPGSV,3,3,12,21,11,133,11,25,05,003,,28,19,040,18,31,22,074,27*72
$GPGLL,5556.44468,N,00315.15043,W,124435.00,A,A*73
$GPRMC,124436.00,A,5556.44449,N,00315.15021,W,0.749,,250724,,,A*62
$GPVTG,,T,,M,0.749,N,1.387,K,A*24
$GPGGA,124436.00,5556.44449,N,00315.15021,W,1,07,1.36,73.1,M,49.9,M,,*70
$GPGSA,A,3,28,04,21,31,03,17,02,,,,,,2.30,1.36,1.86*00
$GPGSV,3,1,12,02,25,136,27,03,70,078,25,04,52,163,21,06,37,297,*7A
$GPGSV,3,2,12,09,24,196,,12,11,334,,17,44,232,10,19,47,270,*77
$GPGSV,3,3,12,21,11,133,11,25,05,003,,28,19,040,17,31,22,074,27*7D
$GPGLL,5556.44449,N,00315.15021,W,124436.00,A,A*77
$GPRMC,124437.00,A,5556.44441,N,00315.14995,W,0.758,,250724,,,A*6C
$GPVTG,,T,,M,0.758,N,1.404,K,A*28
$GPGGA,124437.00,5556.44441,N,00315.14995,W,1,06,3.33,73.4,M,49.9,M,,*7D
$GPGSA,A,3,28,04,21,31,03,02,,,,,,,4.32,3.33,2.75*0A
$GPGSV,3,1,12,02,25,136,27,03,70,078,26,04,52,163,21,06,37,297,*79
$GPGSV,3,2,12,09,24,196,,12,11,334,,17,44,232,09,19,47,270,*7F
$GPGSV,3,3,12,21,11,133,11,25,05,003,,28,19,040,18,31,22,074,27*72
$GPGLL,5556.44441,N,00315.14995,W,124437.00,A,A*79
$GPRMC,124438.00,A,5556.44422,N,00315.15001,W,0.761,,250724,,,A*69
$GPVTG,,T,,M,0.761,N,1.409,K,A*2F
$GPGGA,124438.00,5556.44422,N,00315.15001,W,1,06,3.33,73.8,M,49.9,M,,*7E
$GPGSA,A,3,28,04,21,31,03,02,,,,,,,4.32,3.33,2.75*0A
$GPGSV,3,1,12,02,25,136,27,03,70,078,26,04,52,163,21,06,37,297,*79
$GPGSV,3,2,12,09,24,196,,12,11,334,,17,44,232,08,19,47,270,*7E
$GPGSV,3,3,12,21,11,133,08,25,05,003,,28,19,040,17,31,22,074,27*75
$GPGLL,5556.44422,N,00315.15001,W,124438.00,A,A*76
$GPRMC,124439.00,A,5556.44405,N,00315.15030,W,0.656,,250724,,,A*6A
$GPVTG,,T,,M,0.656,N,1.214,K,A*20
$GPGGA,124439.00,5556.44405,N,00315.15030,W,1,06,3.33,74.0,M,49.9,M,,*77
$GPGSA,A,3,28,04,21,31,03,02,,,,,,,4.32,3.33,2.75*0A
$GPGSV,3,1,12,02,25,136,27,03,70,078,26,04,52,163,21,06,37,297,*79
$GPGSV,3,2,12,09,24,196,,12,11,334,,17,44,232,08,19,47,270,*7E
$GPGSV,3,3,12,21,11,133,08,25,05,003,,28,19,040,18,31,22,074,27*7A
$GPGLL,5556.44405,N,00315.15030,W,124439.00,A,A*70
$GPRMC,124440.00,A,5556.44392,N,00315.15025,W,0.491,,250724,,,A*60
$GPVTG,,T,,M,0.491,N,0.910,K,A*27
$GPGGA,124440.00,5556.44392,N,00315.15025,W,1,06,3.33,74.2,M,49.9,M,,*76
$GPGSA,A,3,28,04,21,31,03,02,,,,,,,4.32,3.33,2.75*0A
$GPGSV,3,1,12,02,25,136,27,03,70,078,26,04,52,163,21,06,37,297,*79
$GPGSV,3,2,12,09,24,196,,12,11,334,,17,44,232,08,19,47,270,*7E
$GPGSV,3,3,12,21,11,133,08,25,05,003,,28,19,040,17,31,22,074,27*75
$GPGLL,5556.44392,N,00315.15025,W,124440.00,A,A*73
$GPRMC,124441.00,A,5556.44367,N,00315.14983,W,0.672,,250724,,,A*60
$GPVTG,,T,,M,0.672,N,1.245,K,A*22
$GPGGA,124441.00,5556.44367,N,00315.14983,W,1,06,3.33,74.5,M,49.9,M,,*7E
$GPGSA,A,3,28,04,21,31,03,02,,,,,,,4.32,3.33,2.75*0A
$GPGSV,3,1,12,02,25,136,27,03,70,078,26,04,52,163,21,06,37,297,*79
$GPGSV,3,2,12,09,24,196,,12,11,334,,17,44,232,08,19,47,270,*7E
$GPGSV,3,3,12,21,11,133,08,25,05,003,,28,19,040,17,31,22,074,27*75
$GPGLL,5556.44367,N,00315.14983,W,124441.00,A,A*7C
$GPRMC,124442.00,A,5556.44352,N,00315.15023,W,0.683,,250724,,,A*69
$GPVTG,,T,,M,0.683,N,1.265,K,A*2E
$GPGGA,124442.00,5556.44352,N,00315.15023,W,1,06,3.33,74.5,M,49.9,M,,*79
$GPGSA,A,3,28,04,21,31,03,02,,,,,,,4.32,3.33,2.75*0A
$GPGSV,3,1,12,02,25,136,27,03,70,078,26,04,52,163,21,06,37,297,*79
$GPGSV,3,2,12,09,24,196,,12,11,334,,17,44,232,08,19,47,270,*7E
$GPGSV,3,3,12,21,11,133,08,25,05,003,,28,19,040,17,31,22,074,27*75
$GPGLL,5556.44352,N,00315.15023,W,124442.00,A,A*7B
$GPRMC,124443.00,A,5556.44345,N,00315.15024,W,0.511,,250724,,,A*61
$GPVTG,,T,,M,0.511,N,0.946,K,A*2D
$GPGGA,124443.00,5556.44345,N,00315.15024,W,1,06,3.33,74.7,M,49.9,M,,*7B
$GPGSA,A,3,28,04,21,31,03,02,,,,,,,4.32,3.33,2.74*0B
$GPGSV,3,1,12,02,25,136,27,03,70,078,26,04,52,163,20,06,37,297,*78
$GPGSV,3,2,12,09,24,196,,12,11,334,,17,44,232,08,19,47,270,*7E
$GPGSV,3,3,12,21,11,133,08,25,05,003,,28,19,040,17,31,22,074,28*7A
$GPGLL,5556.44345,N,00315.15024,W,124443.00,A,A*7B
$GPRMC,124444.00,A,5556.44349,N,00315.15034,W,0.208,,250724,,,A*64
$GPVTG,,T,,M,0.208,N,0.385,K,A*27
$GPGGA,124444.00,5556.44349,N,00315.15034,W,1,07,3.33,74.7,M,49.9,M,,*70
$GPGSA,A,3,28,04,21,31,03,17,02,,,,,,4.32,3.33,2.74*0D
$GPGSV,3,1,12,02,25,136,27,03,70,078,26,04,52,163,20,06,37,297,*78
$GPGSV,3,2,12,09,24,196,,12,11,334,,17,44,232,09,19,47,270,*7F
$GPGSV,3,3,12,21,11,133,11,25,05,003,,28,19,040,17,31,22,074,27*7D
$GPGLL,5556.44349,N,00315.15034,W,124444.00,A,A*71
$GPRMC,124445.00,A,5556.44337,N,00315.15053,W,0.381,,250724,,,A*6D
$GPVTG,,T,,M,0.381,N,0.706,K,A*28
$GPGGA,124445.00,5556.44337,N,00315.15053,W,1,07,3.33,74.7,M,49.9,M,,*79
$GPGSA,A,3,28,04,21,31,03,17,02,,,,,,4.32,3.33,2.74*0D
$GPGSV,3,1,12,02,25,136,27,03,70,078,26,04,52,163,20,06,37,297,*78
$GPGSV,3,2,12,09,24,196,,12,11,334,,17,44,232,09,19,47,270,*7F
$GPGSV,3,3,12,21,11,133,11,25,05,003,,28,19,040,17,31,22,074,27*7D
$GPGLL,5556.44337,N,00315.15053,W,124445.00,A,A*78
$GPRMC,124446.00,A,5556.44332,N,00315.15106,W,0.403,,250724,,,A*67
$GPVTG,,T,,M,0.403,N,0.747,K,A*20
$GPGGA,124446.00,5556.44332,N,00315.15106,W,1,07,1.36,74.5,M,49.9,M,,*7B
$GPGSA,A,3,28,04,21,31,03,17,02,,,,,,2.30,1.36,1.86*00
$GPGSV,3,1,12,02,25,136,27,03,70,078,26,04,52,163,20,06,37,297,*78
$GPGSV,3,2,12,09,24,196,,12,11,334,,17,44,232,09,19,47,270,*7F
$GPGSV,3,3,12,21,11,133,11,25,05,003,,28,19,040,17,31,22,074,27*7D
