GPRMC,112435.00,V,,,,,,,260724,,,N*78
$GPVTG,,,,,,,,,N*30
$GPGGA,112435.00,,,,,0,04,18.40,,,,,,*6F
$GPGSA,A,1,21,32,02,28,,,,,,,,,27.50,18.40,20.44*35
$GPGSV,3,1,12,02,59,123,26,03,72,223,18,04,18,174,16,06,07,289,*74
$GPGSV,3,2,12,14,09,246,,17,51,284,18,19,31,308,,21,41,119,32*7D
$GPGSV,3,3,12,22,19,267,,28,13,071,16,31,02,101,25,32,17,038,25*74
$GPGLL,,,,,112435.00,V,N*4A
$GPRMC,112436.00,V,,,,,,,260724,,,N*7B
$GPVTG,,,,,,,,,N*30
$GPGGA,112436.00,,,,,0,04,18.36,,,,,,*6D
$GPGSA,A,1,21,32,02,28,,,,,,,,,27.45,18.36,20.40*34
$GPGSV,3,1,12,02,59,123,26,03,72,223,17,04,18,174,15,06,07,289,*78
$GPGSV,3,2,12,14,09,246,,17,51,284,18,19,31,308,,21,41,119,32*7D
$GPGSV,3,3,12,22,19,267,,28,13,071,14,31,02,101,25,32,17,038,25*76
$GPGLL,,,,,112436.00,V,N*49
$GPRMC,112437.00,V,,,,,,,260724,,,N*7A
$GPVTG,,,,,,,,,N*30
$GPGGA,112437.00,,,,,0,04,18.33,,,,,,*69
$GPGSA,A,1,21,32,02,28,,,,,,,,,27.40,18.33,20.37*34
$GPGSV,3,1,12,02,59,123,27,03,72,223,17,04,18,174,16,06,07,289,*7A
$GPGSV,3,2,12,14,09,246,,17,51,284,18,19,31,308,,21,41,119,32*7D
$GPGSV,3,3,12,22,19,267,,28,13,071,15,31,02,101,25,32,17,038,25*77
$GPGLL,,,,,112437.00,V,N*48
$GPRMC,112438.00,V,,,,,,,260724,,,N*75
$GPVTG,,,,,,,,,N*30
$GPGGA,112438.00,,,,,0,04,18.29,,,,,,*6D
$GPGSA,A,1,21,32,02,28,,,,,,,,,27.35,18.29,20.33*39
$GPGSV,3,1,12,02,59,123,27,03,72,223,17,04,18,174,17,06,07,289,*7B
$GPGSV,3,2,12,14,09,246,,17,51,284,17,19,31,308,,21,41,119,32*72
$GPGSV,3,3,12,22,19,267,,28,13,071,15,31,02,101,25,32,17,038,25*77
$GPGLL,,,,,112438.00,V,N*47
$GPRMC,112439.00,V,,,,,,,260724,,,N*74
$GPVTG,,,,,,,,,N*30
$GPGGA,112439.00,,,,,0,04,18.26,,,,,,*63
$GPGSA,A,1,21,32,02,28,,,,,,,,,27.30,18.26,20.29*38
$GPGSV,4,1,13,02,59,123,27,03,72,223,18,04,18,174,17,06,07,289,*72
$GPGSV,4,2,13,12,00,000,,14,09,246,,17,51,284,17,19,31,308,*79
$GPGSV,4,3,13,21,41,119,32,22,19,267,,28,13,071,13,31,02,101,25*72
$GPGSV,4,4,13,32,17,038,25*40
$GPGLL,,,,,112439.00,V,N*46
$GPRMC,112440.00,V,,,,,,,260724,,,N*7A
$GPVTG,,,,,,,,,N*30
$GPGGA,112440.00,,,,,0,04,18.22,,,,,,*69
$GPGSA,A,1,21,32,02,28,,,,,,,,,27.25,18.22,20.26*37
$GPGSV,4,1,13,02,59,123,27,03,72,223,17,04,18,174,17,06,07,289,*7D
$GPGSV,4,2,13,12,00,000,,14,09,246,,17,51,284,18,19,31,308,*76
$GPGSV,4,3,13,21,41,119,32,22,19,267,,28,13,071,15,31,02,101,25*74
$GPGSV,4,4,13,32,17,038,25*40
$GPGLL,,,,,112440.00,V,N*48
$GPRMC,112441.00,V,,,,,,,260724,,,N*7B
$GPVTG,,,,,,,,,N*30
$GPGGA,112441.00,,,,,0,04,18.19,,,,,,*60
$GPGSA,A,1,21,32,02,28,,,,,,,,,27.20,18.19,20.22*3E
$GPGSV,4,1,13,02,59,123,27,03,72,223,17,04,18,174,18,06,07,289,*72
$GPGSV,4,2,13,12,00,000,,14,09,246,,17,51,284,18,19,31,308,*76
$GPGSV,4,3,13,21,41,119,32,22,19,267,,28,13,071,16,31,02,101,26*74
$GPGSV,4,4,13,32,17,038,25*40
$GPGLL,,,,,112441.00,V,N*49
$GPRMC,112442.00,V,,,,,,,260724,,,N*78
$GPVTG,,,,,,,,,N*30
$GPGGA,112442.00,,,,,0,04,18.15,,,,,,*6F
$GPGSA,A,1,21,32,02,28,,,,,,,,,27.15,18.15,20.19*3C
$GPGSV,4,1,13,02,59,123,27,03,72,223,17,04,18,174,18,06,07,289,*72
$GPGSV,4,2,13,12,00,000,,14,09,246,,17,51,284,18,19,31,308,*76
$GPGSV,4,3,13,21,41,119,33,22,19,267,,28,13,071,17,31,02,101,26*74
$GPGSV,4,4,13,32,17,038,25*40
$GPGLL,,,,,112442.00,V,N*4A
$GPRMC,112443.00,V,,,,,,,260724,,,N*79
$GPVTG,,,,,,,,,N*30
$GPGGA,112443.00,,,,,0,04,18.12,,,,,,*69
$GPGSA,A,1,21,32,02,28,,,,,,,,,27.10,18.12,20.15*32
$GPGSV,4,1,13,02,59,123,27,03,72,223,18,04,18,174,18,06,07,289,*7D
$GPGSV,4,2,13,12,00,000,,14,09,246,,17,51,284,18,19,31,308,*76
$GPGSV,4,3,13,21,41,119,33,22,19,267,,28,13,071,17,31,02,101,26*74
$GPGSV,4,4,13,32,17,038,25*40
$GPGLL,,,,,112443.00,V,N*4B
$GPRMC,112444.00,V,,,,,,,260724,,,N*7E
$GPVTG,,,,,,,,,N*30
$GPGGA,112444.00,,,,,0,04,18.08,,,,,,*65
$GPGSA,A,1,21,32,02,28,,,,,,,,,27.05,18.08,20.12*3A
$GPGSV,4,1,13,02,59,123,27,03,72,223,18,04,18,174,18,06,07,289,*7D
$GPGSV,4,2,13,12,00,000,,14,09,246,,17,52,283,18,19,31,308,*72
$GPGSV,4,3,13,21,41,119,33,22,19,267,,28,13,071,18,31,02,101,26*7B
$GPGSV,4,4,13,32,17,038,25*40
$GPGLL,,,,,112444.00,V,N*4C
$GPRMC,112445.00,V,,,,,,,260724,,,N*7F
$GPVTG,,,,,,,,,N*30
$GPGGA,112445.00,,,,,0,04,18.05,,,,,,*69
$GPGSA,A,1,21,32,02,28,,,,,,,,,27.00,18.05,20.08*39
$GPGSV,4,1,13,02,59,123,27,03,72,223,17,04,18,174,18,06,07,289,*72
$GPGSV,4,2,13,12,00,000,,14,09,246,,17,52,283,18,19,31,308,*72
$GPGSV,4,3,13,21,41,119,33,22,19,267,,28,13,071,17,31,02,101,26*74
$GPGSV,4,4,13,32,17,038,25*40
$GPGLL,,,,,112445.00,V,N*4D
$GPRMC,112446.00,V,,,,,,,260724,,,N*7C
$GPVTG,,,,,,,,,N*30
$GPGGA,112446.00,,,,,0,04,18.01,,,,,,*6E
$GPGSA,A,1,21,32,02,28,,,,,,,,,26.95,18.01,20.05*3D
$GPGSV,4,1,13,02,59,123,27,03,72,223,17,04,18,174,17,06,07,289,*7D
$GPGSV,4,2,13,12,00,000,,14,09,246,,17,52,283,18,19,31,308,*72
$GPGSV,4,3,13,21,41,119,33,22,19,267,,28,13,071,16,31,02,101,26*75
$GPGSV,4,4,13,32,17,038,26*43
$GPGLL,,,,,112446.00,V,N*4E
$GPRMC,112447.00,V,,,,,,,260724,,,N*7D
$GPVTG,,,,,,,,,N*30
$GPGGA,112447.00,,,,,0,04,17.98,,,,,,*60
$GPGSA,A,1,21,32,02,28,,,,,,,,,26.90,17.98,20.02*30
$GPGSV,4,1,13,02,59,123,27,03,72,223,17,04,18,174,17,06,07,289,*7D
$GPGSV,4,2,13,12,00,000,,14,09,246,,17,52,283,19,19,31,308,*73
$GPGSV,4,3,13,21,41,119,33,22,19,267,,28,13,071,15,31,02,101,27*77
$GPGSV,4,4,13,32,17,038,25*40
$GPGLL,,,,,112447.00,V,N*4F
$GPRMC,112448.00,V,,,,,,,260724,,,N*72
$GPVTG,,,,,,,,,N*30
$GPGGA,112448.00,,,,,0,04,17.94,,,,,,*63
$GPGSA,A,1,21,32,02,28,,,,,,,,,26.86,17.94,19.98*32
$GPGSV,4,1,13,02,59,123,26,03,72,223,17,04,18,174,17,06,07,289,*7C
$GPGSV,4,2,13,12,00,000,,14,09,246,,17,52,283,20,19,31,308,*79
$GPGSV,4,3,13,21,41,120,33,22,19,267,,28,13,071,15,31,02,101,27*7D
$GPGSV,4,4,13,32,17,038,25*40
$GPGLL,,,,,112448.00,V,N*40
$GPRMC,112449.00,V,,,,,,,260724,,,N*73
$GPVTG,,,,,,,,,N*30
$GPGGA,112449.00,,,,,0,04,17.91,,,,,,*67
$GPGSA,A,1,21,32,02,28,,,,,,,,,26.81,17.91,19.95*3D
$GPGSV,4,1,13,02,59,123,26,03,72,223,16,04,18,174,18,06,07,289,*72
$GPGSV,4,2,13,12,00,000,,14,09,246,,17,52,283,19,19,31,308,*73
$GPGSV,4,3,13,21,41,120,33,22,19,267,,28,13,071,15,31,02,101,27*7D
$GPGSV,4,4,13,32,17,038,25*40
$GPGLL,,,,,112449.00,V,N*41
$GPRMC,112450.00,V,,,,,,,260724,,,N*7B
$GPVTG,,,,,,,,,N*30
$GPGGA,112450.00,,,,,0,04,17.88,,,,,,*67
$GPGSA,A,1,21,32,02,28,,,,,,,,,26.76,17.88,19.91*39
$GPGSV,4,1,13,02,59,123,26,03,72,223,16,04,18,174,18,06,07,289,*72
$GPGSV,4,2,13,12,00,000,,14,09,246,,17,52,283,18,19,31,308,*72
$GPGSV,4,3,13,21,41,120,33,22,19,267,,28,13,071,12,31,02,101,26*7B
$GPGSV,4,4,13,32,17,038,25*40
$GPGLL,,,,,112450.00,V,N*49
$GPRMC,112451.00,V,,,,,,,260724,,,N*7A
$GPVTG,,,,,,,,,N*30
$GPGGA,112451.00,,,,,0,04,17.84,,,,,,*6A
$GPGSA,A,1,21,32,02,28,,,,,,,,,26.71,17.84,19.88*3A
$GPGSV,4,1,13,02,59,123,25,03,72,223,16,04,18,174,18,06,07,289,*71
$GPGSV,4,2,13,12,00,000,,14,09,246,,17,52,283,17,19,31,308,*7D
$GPGSV,4,3,13,21,41,120,32,22,19,267,24,28,13,071,11,31,02,101,26*7F
$GPGSV,4,4,13,32,17,038,24*41
$GPGLL,,,,,112451.00,V,N*48
$GPRMC,112452.00,V,,,,,,,260724,,,N*79
$GPVTG,,,,,,,,,N*30
$GPGGA,112452.00,,,,,0,04,17.81,,,,,,*6C
$GPGSA,A,1,21,32,02,28,,,,,,,,,26.66,17.81,19.84*35
$GPGSV,4,1,13,02,59,123,25,03,72,223,17,04,18,174,18,06,07,289,*70
$GPGSV,4,2,13,12,00,000,,14,09,246,,17,52,283,17,19,31,308,*7D
$GPGSV,4,3,13,21,41,120,32,22,19,267,,28,13,071,11,31,02,101,26*79
$GPGSV,4,4,13,32,17,038,25*40
$GPGLL,,,,,112452.00,V,N*4B
$GPRMC,112453.00,V,,,,,,,260724,,,N*78
$GPVTG,,,,,,,,,N*30
$GPGGA,112453.00,,,,,0,04,17.78,,,,,,*6B
$GPGSA,A,1,21,32,02,28,,,,,,,,,26.62,17.78,19.81*32
$GPGSV,4,1,13,02,59,123,24,03,72,223,18,04,18,174,18,06,07,289,*7E
$GPGSV,4,2,13,12,00,000,,14,09,246,,17,52,283,18,19,31,308,*72
$GPGSV,4,3,13,21,41,120,33,22,19,267,,28,13,071,11,31,02,101,26*78
$GPGSV,4,4,13,32,17,038,25*40
$GPGLL,,,,,112453.00,V,N*4A
$GPRMC,112454.00,V,,,,,,,260724,,,N*7F
$GPVTG,,,,,,,,,N*30
$GPGGA,112454.00,,,,,0,04,17.74,,,,,,*60
$GPGSA,A,1,21,32,02,28,,,,,,,,,26.57,17.74,19.78*3E
$GPGSV,4,1,13,02,59,123,24,03,72,223,17,04,18,174,19,06,07,289,*70
$GPGSV,4,2,13,12,00,000,,14,09,246,,17,52,283,18,19,31,308,*72
$GPGSV,4,3,13,21,41,120,32,22,19,267,,28,13,071,10,31,02,101,26*78
$GPGSV,4,4,13,32,17,038,25*40
$GPGLL,,,,,112454.00,V,N*4D
$GPRMC,112455.00,A,5556.43210,N,00315.23305,W,0.767,,260724,,,A*60
$GPVTG,,T,,M,0.767,N,1.421,K,A*23
$GPGGA,112455.00,5556.43210,N,00315.23305,W,1,03,6.60,-36.0,M,49.9,M,,*50
$GPGSA,A,2,21,32,02,,,,,,,,,,6.67,6.60,1.00*05
$GPGSV,4,1,13,02,59,123,24,03,72,223,16,04,18,174,19,06,07,289,*71
$GPGSV,4,2,13,12,00,000,,14,09,246,,17,52,283,18,19,31,308,*72
$GPGSV,4,3,13,21,41,120,32,22,19,267,,28,13,071,09,31,02,101,26*70
$GPGSV,4,4,13,32,17,038,25*40
$GPGLL,5556.43210,N,00315.23305,W,112455.00,A,A*7A
$GPRMC,112456.00,A,5556.43200,N,00315.23356,W,0.554,,260724,,,A*66
$GPVTG,,T,,M,0.554,N,1.026,K,A*22
$GPGGA,112456.00,5556.43200,N,00315.23356,W,1,03,6.60,-36.1,M,49.9,M,,*55
$GPGSA,A,2,21,32,02,,,,,,,,,,6.67,6.60,1.00*05
$GPGSV,4,1,13,02,59,123,23,03,72,223,16,04,18,174,19,06,07,289,*76
$GPGSV,4,2,13,12,00,000,,14,09,246,,17,52,283,19,19,31,308,*73
$GPGSV,4,3,13,21,41,120,32,22,19,267,,28,13,071,09,31,02,101,27*71
$GPGSV,4,4,13,32,17,038,25*40
$GPGLL,5556.43200,N,00315.23356,W,112456.00,A,A*7E
$GPRMC,112457.00,V,,,,,,,260724,,,N*7C
$GPVTG,,,,,,,,,N*30
$GPGGA,112457.00,,,,,0,04,17.64,,,,,,*62
$GPGSA,A,1,21,32,02,28,,,,,,,,,26.43,17.64,19.68*3B
$GPGSV,4,1,13,02,59,123,22,03,72,223,16,04,18,174,18,06,07,289,*76
$GPGSV,4,2,13,12,00,000,,14,09,246,,17,52,283,18,19,31,308,*72
$GPGSV,4,3,13,21,41,120,32,22,19,267,,28,13,071,10,31,02,101,27*79
$GPGSV,4,4,13,32,17,038,25*40
$GPGLL,,,,,112457.00,V,N*4E
$GPRMC,112458.00,V,,,,,,,260724,,,N*73
$GPVTG,,,,,,,,,N*30
$GPGGA,112458.00,,,,,0,04,17.61,,,,,,*68
$GPGSA,A,1,21,32,02,28,,,,,,,,,26.38,17.61,19.64*3E
$GPGSV,4,1,13,02,59,123,22,03,72,223,17,04,18,174,19,06,07,289,*76
$GPGSV,4,2,13,12,00,000,,14,09,246,,17,52,283,18,19,31,308,*72
$GPGSV,4,3,13,21,41,120,32,22,19,267,,28,13,071,11,31,02,101,27*78
$GPGSV,4,4,13,32,17,038,25*40
$GPGLL,,,,,112458.00,V,N*41
$GPRMC,112459.00,A,5556.43209,N,00315.23021,W,0.124,,260724,,,A*60
$GPVTG,,T,,M,0.124,N,0.229,K,A*2D
$GPGGA,112459.00,5556.43209,N,00315.23021,W,1,03,6.60,-36.2,M,49.9,M,,*53
$GPGSA,A,2,21,32,02,,,,,,,,,,6.68,6.60,1.00*0A
$GPGSV,4,1,13,02,59,123,22,03,72,223,17,04,18,174,19,06,07,289,*76
$GPGSV,4,2,13,12,00,000,,14,09,246,,17,52,283,18,19,31,308,*72
$GPGSV,4,3,13,21,41,120,32,22,19,267,,28,13,071,,31,02,101,26*79
$GPGSV,4,4,13,32,17,037,25*4F
$GPGLL,5556.43209,N,00315.23021,W,112459.00,A,A*7B
$GPRMC,112500.00,A,5556.43217,N,00315.22977,W,0.367,,260724,,,A*6C
$GPVTG,,T,,M,0.367,N,0.681,K,A*2E
$GPGGA,112500.00,5556.43217,N,00315.22977,W,1,03,6.60,-36.2,M,49.9,M,,*5A
$GPGSA,A,2,21,32,02,,,,,,,,,,6.68,6.60,1.00*0A
$GPGSV,4,1,13,02,59,123,21,03,72,223,17,04,18,174,18,06,07,289,*74
$GPGSV,4,2,13,12,00,000,,14,09,246,,17,52,283,17,19,31,308,*7D
$GPGSV,4,3,13,21,41,120,32,22,19,267,,28,13,071,,31,02,101,26*79
$GPGSV,4,4,13,32,17,037,25*4F
$GPGLL,5556.43217,N,00315.22977,W,112500.00,A,A*72
$GPRMC,112501.00,A,5556.43210,N,00315.23013,W,0.235,,260724,,,A*66
$GPVTG,,T,,M,0.235,N,0.434,K,A*24
$GPGGA,112501.00,5556.43210,N,00315.23013,W,1,03,6.60,-36.2,M,49.9,M,,*56
$GPGSA,A,2,21,32,02,,,,,,,,,,6.68,6.60,1.00*0A
$GPGSV,4,1,13,02,59,123,20,03,72,223,17,04,18,174,18,06,07,289,*75
$GPGSV,4,2,13,12,00,000,,14,09,246,,17,52,283,18,19,31,308,*72
$GPGSV,4,3,13,21,41,120,32,22,19,267,,28,13,071,,31,02,101,27*78
$GPGSV,4,4,13,32,17,037,25*4F
$GPGLL,5556.43210,N,00315.23013,W,112501.00,A,A*7E
$GPRMC,112502.00,A,5556.43204,N,00315.22807,W,0.496,,260724,,,A*63
$GPVTG,,T,,M,0.496,N,0.918,K,A*28
$GPGGA,112502.00,5556.43204,N,00315.22807,W,1,03,6.61,-36.2,M,49.9,M,,*5D
$GPGSA,A,2,21,32,02,,,,,,,,,,6.68,6.61,1.00*0B
$GPGSV,4,1,13,02,59,123,19,03,72,223,16,04,18,174,17,06,07,289,*71
$GPGSV,4,2,13,12,00,000,,14,09,246,,17,52,283,19,19,31,308,*73
$GPGSV,4,3,13,21,41,120,32,22,19,267,,28,13,071,,31,02,101,27*78
$GPGSV,4,4,13,32,17,037,26*4C
$GPGLL,5556.43204,N,00315.22807,W,112502.00,A,A*74
$GPRMC,112503.00,A,5556.43200,N,00315.22947,W,0.208,,260724,,,A*62
$GPVTG,,T,,M,0.208,N,0.385,K,A*27
$GPGGA,112503.00,5556.43200,N,00315.22947,W,1,03,6.61,-36.2,M,49.9,M,,*5D
$GPGSA,A,2,21,32,02,,,,,,,,,,6.68,6.61,1.00*0B
$GPGSV,4,1,13,02,59,123,19,03,72,223,16,04,18,174,17,06,07,289,*71
$GPGSV,4,2,13,12,00,000,,14,09,246,,17,52,283,19,19,31,308,*73
$GPGSV,4,3,13,21,41,120,32,22,19,267,,28,13,071,,31,02,101,26*79
$GPGSV,4,4,13,32,17,037,26*4C
$GPGLL,5556.43200,N,00315.22947,W,112503.00,A,A*74
$GPRMC,112504.00,A,5556.43200,N,00315.23071,W,0.321,,260724,,,A*62
$GPVTG,,T,,M,0.321,N,0.595,K,A*2A
$GPGGA,112504.00,5556.43200,N,00315.23071,W,1,03,6.61,-36.2,M,49.9,M,,*57
$GPGSA,A,2,21,32,02,,,,,,,,,,6.68,6.61,1.00*0B
$GPGSV,4,1,13,02,59,123,18,03,72,223,17,04,18,174,17,06,07,289,*71
$GPGSV,4,2,13,12,00,000,,14,09,246,,17,52,283,18,19,31,308,*72
$GPGSV,4,3,13,21,41,120,32,22,19,267,,28,13,071,,31,02,101,26*79
$GPGSV,4,4,13,32,17,037,25*4F
$GPGLL,5556.43200,N,00315.23071,W,112504.00,A,A*7E
$GPRMC,112505.00,A,5556.43182,N,00315.23482,W,1.339,,260724,,,A*6A
$GPVTG,,T,,M,1.339,N,2.480,K,A*25
$GPGGA,112505.00,5556.43182,N,00315.23482,W,1,03,6.61,-36.2,M,49.9,M,,*57
$GPGSA,A,2,21,32,02,,,,,,,,,,6.68,6.61,1.00*0B
$GPGSV,4,1,13,02,59,123,17,03,72,223,18,04,18,174,18,06,07,289,*7E
$GPGSV,4,2,13,12,00,000,,14,09,246,,17,52,283,18,19,31,308,*72
$GPGSV,4,3,13,21,41,120,32,22,19,267,,28,13,071,,31,02,101,26*79
$GPGSV,4,4,13,32,17,037,25*4F
$GPGLL,5556.43182,N,00315.23482,W,112505.00,A,A*7E
$GPRMC,112506.00,A,5556.43167,N,00315.23830,W,1.956,,260724,,,A*64
$GPVTG,,T,,M,1.956,N,3.622,K,A*2D
$GPGGA,112506.00,5556.43167,N,00315.23830,W,1,03,6.61,-36.2,M,49.9,M,,*5A
$GPGSA,A,2,21,32,02,,,,,,,,,,6.69,6.61,1.00*0A
$GPGSV,4,1,13,02,59,123,15,03,72,223,18,04,18,174,18,06,07,289,*7C
$GPGSV,4,2,13,12,00,000,,14,09,246,,17,52,283,18,19,31,308,*72
$GPGSV,4,3,13,21,41,120,32,22,19,267,,28,13,071,,31,02,101,26*79
$GPGSV,4,4,13,32,17,037,25*4F
$GPGLL,5556.43167,N,00315.23830,W,112506.00,A,A*73
$GPRMC,112507.00,A,5556.43154,N,00315.23830,W,1.660,,260724,,,A*6F
$GPVTG,,T,,M,1.660,N,3.074,K,A*22
$GPGGA,112507.00,5556.43154,N,00315.23830,W,1,03,6.61,-36.2,M,49.9,M,,*5B
$GPGSA,A,2,21,32,02,,,,,,,,,,6.69,6.61,1.00*0A
$GPGSV,4,1,13,02,59,123,16,03,72,223,17,04,18,174,18,06,07,289,*70
$GPGSV,4,2,13,12,00,000,,14,09,246,,17,52,283,18,19,31,308,*72
$GPGSV,4,3,13,21,41,120,32,22,19,267,,28,13,071,07,31,02,101,26*7E
$GPGSV,4,4,13,32,17,037,25*4F
$GPGLL,5556.43154,N,00315.23830,W,112507.00,A,A*72
$GPRMC,112508.00,A,5556.43144,N,00315.24061,W,1.861,,260724,,,A*65
$GPVTG,,T,,M,1.861,N,3.447,K,A*29
$GPGGA,112508.00,5556.43144,N,00315.24061,W,1,04,6.61,-36.2,M,49.9,M,,*59
$GPGSA,A,2,21,32,02,28,,,,,,,,,6.69,6.61,1.00*00
$GPGSV,4,1,13,02,59,123,17,03,72,223,17,04,18,174,18,06,07,289,*71
$GPGSV,4,2,13,12,00,000,,14,09,246,,17,52,283,17,19,31,308,*7D
$GPGSV,4,3,13,21,41,120,31,22,19,267,,28,13,071,10,31,02,101,26*7B
$GPGSV,4,4,13,32,17,037,25*4F
$GPGLL,5556.43144,N,00315.24061,W,112508.00,A,A*77
$GPRMC,112509.00,A,5556.43129,N,00315.24452,W,2.400,269.66,260724,,,A*70
$GPVTG,269.66,T,,M,2.400,N,4.446,K,A*34
$GPGGA,112509.00,5556.43129,N,00315.24452,W,1,04,6.61,-36.2,M,49.9,M,,*57
$GPGSA,A,2,21,32,02,28,,,,,,,,,6.69,6.61,1.00*00
$GPGSV,4,1,13,02,59,123,17,03,72,223,17,04,18,174,18,06,07,289,*71
$GPGSV,4,2,13,12,00,000,,14,09,246,,17,52,283,16,19,31,308,*7C
$GPGSV,4,3,13,21,41,120,31,22,19,267,,28,13,071,13,31,02,101,25*7B
$GPGSV,4,4,13,32,17,037,25*4F
$GPGLL,5556.43129,N,00315.24452,W,112509.00,A,A*79
$GPRMC,112510.00,A,5556.43121,N,00315.24708,W,2.611,269.71,260724,,,A*78
$GPVTG,269.71,T,,M,2.611,N,4.836,K,A*3B
$GPGGA,112510.00,5556.43121,N,00315.24708,W,1,04,6.61,-36.2,M,49.9,M,,*5B
$GPGSA,A,2,21,32,02,28,,,,,,,,,6.69,6.61,1.00*00
$GPGSV,4,1,13,02,59,123,17,03,72,223,17,04,18,174,18,06,07,289,*71
$GPGSV,4,2,13,12,00,000,,14,09,246,,17,52,283,16,19,31,308,*7C
$GPGSV,4,3,13,21,41,120,31,22,19,267,,28,13,071,13,31,02,101,25*7B
$GPGSV,4,4,13,32,17,037,25*4F
$GPGLL,5556.43121,N,00315.24708,W,112510.00,A,A*75
$GPRMC,112511.00,V,,,,,,,260724,,,N*7F
$GPVTG,,,,,,,,,N*30
$GPGGA,112511.00,,,,,0,04,17.19,,,,,,*6B
$GPGSA,A,1,21,32,02,28,,,,,,,,,25.79,17.19,19.22*35
$GPGSV,4,1,13,02,59,123,16,03,72,223,18,04,18,174,18,06,07,289,*7F
$GPGSV,4,2,13,12,00,000,,14,09,246,,17,52,283,17,19,31,308,*7D
$GPGSV,4,3,13,21,41,120,31,22,19,267,,28,13,071,12,31,02,101,25*7A
$GPGSV,4,4,13,32,17,037,26*4C
$GPGLL,,,,,112511.00,V,N*4D
$GPRMC,112512.00,V,,,,,,,260724,,,N*7C
$GPVTG,,,,,,,,,N*30
$GPGGA,112512.00,,,,,0,04,17.16,,,,,,*67
$GPGSA,A,1,21,32,02,28,,,,,,,,,25.74,17.16,19.19*3F
$GPGSV,4,1,13,02,59,123,15,03,72,223,17,04,18,174,18,06,07,289,*73
$GPGSV,4,2,13,12,00,000,,14,09,246,,17,52,283,16,19,31,308,*7C
$GPGSV,4,3,13,21,41,120,32,22,19,267,,28,13,071,10,31,02,101,24*7A
$GPGSV,4,4,13,32,17,037,26*4C
$GPGLL,,,,,112512.00,V,N*4E
$GPRMC,112513.00,V,,,,,,,260724,,,N*7D
$GPVTG,,,,,,,,,N*30
$GPGGA,112513.00,,,,,0,04,17.13,,,,,,*63
$GPGSA,A,1,21,32,02,28,,,,,,,,,25.70,17.13,19.16*31
$GPGSV,4,1,13,02,59,123,16,03,72,223,17,04,18,174,19,06,07,289,*71
$GPGSV,4,2,13,12,00,000,,14,09,246,,17,52,283,16,19,31,308,*7C
$GPGSV,4,3,13,21,41,120,32,22,19,267,,28,13,071,12,31,02,101,24*78
$GPGSV,4,4,13,32,17,037,26*4C
$GPGLL,,,,,112513.00,V,N*4F
$GPRMC,112514.00,V,,,,,,,260724,,,N*7A
$GPVTG,,,,,,,,,N*30
$GPGGA,112514.00,,,,,0,04,17.09,,,,,,*6F
$GPGSA,A,1,21,32,02,28,,,,,,,,,25.65,17.09,19.13*3B
$GPGSV,4,1,13,02,59,123,16,03,72,223,16,04,18,174,18,06,07,289,*71
$GPGSV,4,2,13,12,00,000,,14,09,246,,17,52,283,15,19,31,308,*7F
$GPGSV,4,3,13,21,41,120,31,22,19,267,,28,13,071,15,31,02,101,24*7C
$GPGSV,4,4,13,32,17,037,26*4C
$GPGLL,,,,,112514.00,V,N*48
$GPRMC,112515.00,V,,,,,,,260724,,,N*7B
$GPVTG,,,,,,,,,N*30
$GPGGA,112515.00,,,,,0,04,17.06,,,,,,*61
$GPGSA,A,1,21,32,02,28,,,,,,,,,25.61,17.06,19.10*33
$GPGSV,4,1,13,02,59,123,16,03,72,223,15,04,18,174,17,06,07,289,*7D
$GPGSV,4,2,13,12,00,000,,14,09,246,,17,52,283,16,19,31,308,*7C
$GPGSV,4,3,13,21,41,120,31,22,19,267,,28,13,071,18,31,02,101,24*71
$GPGSV,4,4,13,32,17,037,26*4C
$GPGLL,,,,,112515.00,V,N*49
$GPRMC,112516.00,V,,,,,,,260724,,,N*78
$GPVTG,,,,,,,,,N*30
$GPGGA,112516.00,,,,,0,04,17.03,,,,,,*67
$GPGSA,A,1,21,32,02,28,,,,,,,,,25.57,17.03,19.07*35
$GPGSV,4,1,13,02,59,123,17,03,72,223,15,04,18,174,16,06,07,289,*7D
$GPGSV,4,2,13,12,00,000,,14,09,246,,17,52,283,16,19,31,308,*7C
$GPGSV,4,3,13,21,41,120,32,22,19,267,,28,13,071,18,31,02,101,25*73
$GPGSV,4,4,13,32,17,037,26*4C
$GPGLL,,,,,112516.00,V,N*4A
$GPRMC,112517.00,V,,,,,,,260724,,,N*79
$GPVTG,,,,,,,,,N*30
$GPGGA,112517.00,,,,,0,04,17.00,,,,,,*65
$GPGSA,A,1,21,32,02,28,,,,,,,,,25.52,17.00,19.04*30
$GPGSV,4,1,13,02,59,123,18,03,72,223,15,04,18,174,17,06,07,289,*73
$GPGSV,4,2,13,12,00,000,,14,09,246,,17,52,283,16,19,31,308,*7C
$GPGSV,4,3,13,21,41,120,31,22,19,267,,28,13,071,19,31,02,101,25*71
$GPGSV,4,4,13,32,17,037,26*4C
$GPGLL,,,,,112517.00,V,N*4B
$GPRMC,112518.00,V,,,,,,,260724,,,N*76
$GPVTG,,,,,,,,,N*30
$GPGGA,112518.00,,,,,0,04,16.97,,,,,,*65
$GPGSA,A,1,21,32,02,28,,,,,,,,,25.48,16.97,19.00*30
$GPGSV,4,1,13,02,59,123,20,03,72,223,13,04,18,174,18,06,07,289,*71
$GPGSV,4,2,13,12,00,000,,14,09,246,,17,52,283,16,19,31,308,*7C
$GPGSV,4,3,13,21,41,120,31,22,19,267,,28,13,071,18,31,02,101,25*70
$GPGSV,4,4,13,32,17,037,26*4C
$GPGLL,,,,,112518.00,V,N*44
$GPRMC,112519.00,V,,,,,,,260724,,,N*77
$GPVTG,,,,,,,,,N*30
$GPGGA,112519.00,,,,,0,04,16.94,,,,,,*67
$GPGSA,A,1,21,32,02,28,,,,,,,,,25.44,16.94,18.97*30
$GPGSV,4,1,13,02,59,123,21,03,72,223,12,04,18,174,18,06,07,289,*71
$GPGSV,4,2,13,12,00,000,,14,09,246,,17,52,283,16,19,31,308,*7C
$GPGSV,4,3,13,21,41,120,31,22,19,267,,28,13,071,19,31,02,101,25*71
$GPGSV,4,4,13,32,17,037,26*4C
$GPGLL,,,,,112519.00,V,N*45
$GPRMC,112520.00,V,,,,,,,260724,,,N*7D
$GPVTG,,,,,,,,,N*30
$GPGGA,112520.00,,,,,0,04,16.91,,,,,,*68
$GPGSA,A,1,21,32,02,28,,,,,,,,,25.39,16.91,18.94*3C
$GPGSV,4,1,13,02,59,123,21,03,72,223,11,04,18,174,18,06,07,289,*72
$GPGSV,4,2,13,12,00,000,,14,09,246,,17,52,283,17,19,31,308,*7D
$GPGSV,4,3,13,21,41,120,31,22,19,267,,28,13,071,19,31,02,101,25*71
$GPGSV,4,4,13,32,17,037,26*4C
$GPGLL,,,,,112520.00,V,N*4F
$GPRMC,112521.00,V,,,,,,,260724,,,N*7C
$GPVTG,,,,,,,,,N*30
$GPGGA,112521.00,,,,,0,04,16.88,,,,,,*61
$GPGSA,A,1,21,32,02,28,,,,,,,,,25.35,16.88,18.91*3D
$GPGSV,4,1,13,02,59,123,21,03,72,223,11,04,18,174,19,06,07,289,*73
$GPGSV,4,2,13,12,00,000,,14,09,246,,17,52,283,18,19,31,308,*72
$GPGSV,4,3,13,21,41,120,31,22,19,267,,28,13,071,20,31,02,101,26*78
$GPGSV,4,4,13,32,17,037,26*4C
$GPGLL,,,,,112521.00,V,N*4E
$GPRMC,112522.00,V,,,,,,,260724,,,N*7F
$GPVTG,,,,,,,,,N*30
$GPGGA,112522.00,,,,,0,04,16.85,,,,,,*6F
$GPGSA,A,1,21,32,02,28,,,,,,,,,25.31,16.85,18.88*3C
$GPGSV,4,1,13,02,59,123,21,03,72,223,14,04,18,174,18,06,07,289,*77
$GPGSV,4,2,13,12,00,000,,14,09,246,,17,52,283,18,19,31,308,*72
$GPGSV,4,3,13,21,41,120,31,22,19,267,,28,13,071,21,31,02,101,26*79
$GPGSV,4,4,13,32,17,037,26*4C
$GPGLL,,,,,112522.00,V,N*4D
$GPRMC,112523.00,V,,,,,,,260724,,,N*7E
$GPVTG,,,,,,,,,N*30
$GPGGA,112523.00,,,,,0,04,16.82,,,,,,*69
$GPGSA,A,1,21,32,02,28,,,,,,,,,25.26,16.82,18.85*30
$GPGSV,4,1,13,02,59,123,22,03,72,223,15,04,18,174,18,06,07,289,*75
$GPGSV,4,2,13,12,00,000,,14,09,246,,17,52,283,18,19,31,308,*72
$GPGSV,4,3,13,21,41,120,31,22,19,267,,28,13,071,21,31,02,101,26*79
$GPGSV,4,4,13,32,17,037,26*4C
$GPGLL,,,,,112523.00,V,N*4C
$GPRMC,112524.00,V,,,,,,,260724,,,N*79
$GPVTG,,,,,,,,,N*30
$GPGGA,112524.00,,,,,0,04,16.79,,,,,,*6A
$GPGSA,A,1,21,32,02,28,,,,,,,,,25.22,16.79,18.82*37
$GPGSV,4,1,13,02,59,123,22,03,72,223,15,04,18,174,18,06,07,289,*75
$GPGSV,4,2,13,12,00,000,,14,09,246,,17,52,283,18,19,31,308,*72
$GPGSV,4,3,13,21,41,120,31,22,19,267,,28,13,071,20,31,02,101,26*78
$GPGSV,4,4,13,32,17,037,26*4C
$GPGLL,,,,,112524.00,V,N*4B
$GPRMC,112525.00,V,,,,,,,260724,,,N*78
$GPVTG,,,,,,,,,N*30
$GPGGA,112525.00,,,,,0,04,16.76,,,,,,*64
$GPGSA,A,1,21,32,02,28,,,,,,,,,25.18,16.76,18.79*35
$GPGSV,4,1,13,02,59,123,22,03,72,223,15,04,18,174,17,06,07,289,*7A
$GPGSV,4,2,13,12,00,000,,14,09,246,,17,52,283,18,19,31,308,*72
$GPGSV,4,3,13,21,41,120,31,22,19,267,,28,13,071,19,31,02,101,27*73
$GPGSV,4,4,13,32,17,037,26*4C
$GPGLL,,,,,112525.00,V,N*4A
$GPRMC,112526.00,V,,,,,,,260724,,,N*7B
$GPVTG,,,,,,,,,N*30
$GPGGA,112526.00,,,,,0,04,16.73,,,,,,*62
$GPGSA,A,1,21,32,02,28,,,,,,,,,25.14,16.73,18.76*33
$GPGSV,4,1,13,02,59,123,23,03,72,223,15,04,18,174,18,06,07,289,*74
$GPGSV,4,2,13,12,00,000,,14,09,246,,17,52,283,18,19,31,308,*72
$GPGSV,4,3,13,21,41,120,31,22,19,267,,28,13,071,18,31,02,101,28*7D
$GPGSV,4,4,13,32,17,037,26*4C
$GPGLL,,,,,112526.00,V,N*49
$GPRMC,112527.00,V,,,,,,,260724,,,N*7A
$GPVTG,,,,,,,,,N*30
$GPGGA,112527.00,,,,,0,04,16.70,,,,,,*60
$GPGSA,A,1,21,32,02,28,,,,,,,,,25.09,16.70,18.73*39
$GPGSV,4,1,13,02,59,123,24,03,72,223,15,04,18,174,18,06,07,289,*73
$GPGSV,4,2,13,12,00,000,,14,09,246,,17,52,283,17,19,31,308,*7D
$GPGSV,4,3,13,21,41,120,32,22,19,267,,28,13,071,17,31,02,101,28*71
$GPGSV,4,4,13,32,17,037,27*4D
$GPGLL,,,,,112527.00,V,N*48
$GPRMC,112528.00,V,,,,,,,260724,,,N*75
$GPVTG,,,,,,,,,N*30
$GPGGA,112528.00,,,,,0,04,16.67,,,,,,*69
$GPGSA,A,1,21,32,02,28,,,,,,,,,25.05,16.67,18.70*30
$GPGSV,4,1,13,02,59,123,25,03,72,223,15,04,18,174,19,06,07,289,*73
$GPGSV,4,2,13,12,00,000,,14,09,246,,17,52,283,16,19,31,308,*7C
$GPGSV,4,3,13,21,41,120,32,22,19,267,,28,13,071,18,31,02,101,28*7E
$GPGSV,4,4,13,32,17,037,27*4D
$GPGLL,,,,,112528.00,V,N*47
$GPRMC,112529.00,V,,,,,,,260724,,,N*74
$GPVTG,,,,,,,,,N*30
$GPGGA,112529.00,,,,,0,04,16.64,,,,,,*6B
$GPGSA,A,1,21,32,02,28,,,,,,,,,25.01,16.64,18.67*31
$GPGSV,4,1,13,02,59,123,25,03,72,223,15,04,18,174,18,06,07,289,*72
$GPGSV,4,2,13,12,00,000,,14,09,246,,17,52,283,17,19,31,308,*7D
$GPGSV,4,3,13,21,41,120,32,22,19,267,,28,13,071,18,31,02,101,28*7E
$GPGSV,4,4,13,32,17,037,27*4D
$GPGLL,,,,,112529.00,V,N*46
$GPRMC,112530.00,A,5556.42908,N,00315.28961,W,1.776,,260724,,,A*63
$GPVTG,,T,,M,1.776,N,3.290,K,A*2C
$GPGGA,112530.00,5556.42908,N,00315.28961,W,1,04,16.61,-36.2,M,49.9,M,,*67
$GPGSA,A,3,21,32,02,28,,,,,,,,,24.97,16.61,18.64*3B
$GPGSV,4,1,13,02,59,123,26,03,72,223,15,04,18,174,18,06,07,289,*71
$GPGSV,4,2,13,12,00,000,,14,09,246,,17,52,283,17,19,31,308,*7D
$GPGSV,4,3,13,21,41,120,32,22,19,267,,28,13,071,18,31,02,101,28*7E
$GPGSV,4,4,13,32,17,037,27*4D
$GPGLL,5556.42908,N,00315.28961,W,112530.00,A,A*78
$GPRMC,112531.00,A,5556.42911,N,00315.28811,W,1.510,,260724,,,A*6E
$GPVTG,,T,,M,1.510,N,2.796,K,A*2C
$GPGGA,112531.00,5556.42911,N,00315.28811,W,1,04,16.58,-36.2,M,49.9,M,,*62
$GPGSA,A,3,21,32,02,28,,,,,,,,,24.93,16.58,18.61*30
$GPGSV,4,1,13,02,59,123,27,03,72,223,15,04,18,174,18,06,07,289,*70
$GPGSV,4,2,13,12,00,000,,14,09,246,,17,52,283,16,19,31,308,*7C
$GPGSV,4,3,13,21,41,120,32,22,19,267,,28,13,071,18,31,02,101,28*7E
$GPGSV,4,4,13,32,17,037,27*4D
$GPGLL,5556.42911,N,00315.28811,W,112531.00,A,A*77
$GPRMC,112532.00,A,5556.42919,N,00315.28587,W,1.087,,260724,,,A*6C
$GPVTG,,T,,M,1.087,N,2.012,K,A*2C
$GPGGA,112532.00,5556.42919,N,00315.28587,W,1,04,16.55,-36.2,M,49.9,M,,*66
$GPGSA,A,3,21,32,02,28,,,,,,,,,24.88,16.55,18.58*3D
$GPGSV,4,1,13,02,59,123,27,03,72,223,14,04,18,174,18,06,07,289,*71
$GPGSV,4,2,13,12,00,000,,14,09,246,,17,52,283,16,19,31,308,*7C
$GPGSV,4,3,13,21,41,120,32,22,19,267,,28,13,071,19,31,02,101,28*7F
$GPGSV,4,4,13,32,17,037,27*4D
$GPGLL,5556.42919,N,00315.28587,W,112532.00,A,A*7E
$GPRMC,112533.00,A,5556.42918,N,00315.28550,W,1.480,,260724,,,A*65
$GPVTG,,T,,M,1.480,N,2.742,K,A*2D
$GPGGA,112533.00,5556.42918,N,00315.28550,W,1,04,16.52,-36.2,M,49.9,M,,*6B
$GPGSA,A,3,21,32,02,28,,,,,,,,,24.84,16.52,18.55*3B
$GPGSV,4,1,13,02,59,123,27,03,72,223,14,04,18,174,19,06,07,289,*70
$GPGSV,4,2,13,12,00,000,,14,09,246,,17,52,283,17,19,31,308,*7D
$GPGSV,4,3,13,21,41,120,32,22,19,267,,28,13,071,20,31,02,101,28*75
$GPGSV,4,4,13,32,17,037,27*4D
$GPGLL,5556.42918,N,00315.28550,W,112533.00,A,A*74
$GPRMC,112534.00,A,5556.42930,N,00315.28294,W,1.207,,260724,,,A*6E
$GPVTG,,T,,M,1.207,N,2.236,K,A*22
$GPGGA,112534.00,5556.42930,N,00315.28294,W,1,04,16.49,-36.2,M,49.9,M,,*63
$GPGSA,A,3,21,32,02,28,,,,,,,,,24.80,16.49,18.52*32
$GPGSV,4,1,13,02,59,123,28,03,72,223,10,04,18,174,19,06,07,289,*7B
$GPGSV,4,2,13,12,00,000,,14,09,246,,17,52,283,18,19,31,308,*72
$GPGSV,4,3,13,21,41,120,32,22,19,267,,28,13,071,20,31,02,101,28*75
$GPGSV,4,4,13,32,17,037,27*4D
$GPGLL,5556.42930,N,00315.28294,W,112534.00,A,A*76
$GPRMC,112535.00,A,5556.42934,N,00315.28054,W,0.880,,260724,,,A*61
$GPVTG,,T,,M,0.880,N,1.630,K,A*27
$GPGGA,112535.00,5556.42934,N,00315.28054,W,1,04,16.46,-36.2,M,49.9,M,,*67
$GPGSA,A,3,21,32,02,28,,,,,,,,,24.76,16.46,18.49*3E
$GPGSV,4,1,13,02,59,123,28,03,72,223,12,04,18,174,18,06,07,289,*78
$GPGSV,4,2,13,12,00,000,,14,09,246,,17,52,283,17,19,31,308,*7D
$GPGSV,4,3,13,21,41,120,32,22,19,267,,28,13,071,21,31,02,101,29*75
$GPGSV,4,4,13,32,17,037,27*4D
$GPGLL,5556.42934,N,00315.28054,W,112535.00,A,A*7D
$GPRMC,112536.00,A,5556.42941,N,00315.27824,W,0.600,,260724,,,A*66
$GPVTG,,T,,M,0.600,N,1.112,K,A*26
$GPGGA,112536.00,5556.42941,N,00315.27824,W,1,04,16.43,-36.2,M,49.9,M,,*63
$GPGSA,A,3,21,32,02,28,,,,,,,,,24.72,16.43,18.47*31
$GPGSV,4,1,13,02,59,123,28,03,72,223,13,04,18,174,19,06,07,289,*78
$GPGSV,4,2,13,12,00,000,,14,09,246,,17,52,283,17,19,31,308,*7D
$GPGSV,4,3,13,21,41,120,32,22,19,267,,28,13,071,21,31,02,101,29*75
$GPGSV,4,4,13,32,17,037,26*4C
$GPGLL,5556.42941,N,00315.27824,W,112536.00,A,A*7C
$GPRMC,112537.00,A,5556.42952,N,00315.27587,W,0.350,,260724,,,A*61
$GPVTG,,T,,M,0.350,N,0.649,K,A*2E
$GPGGA,112537.00,5556.42952,N,00315.27587,W,1,04,16.40,-36.2,M,49.9,M,,*67
$GPGSA,A,3,21,32,02,28,,,,,,,,,24.68,16.40,18.44*3A
$GPGSV,4,1,13,02,59,123,29,03,72,223,14,04,18,174,20,06,07,289,*74
$GPGSV,4,2,13,12,00,000,,14,09,246,,17,52,283,17,19,31,308,*7D
$GPGSV,4,3,13,21,41,120,32,22,19,267,,28,13,071,21,31,02,101,29*75
$GPGSV,4,4,13,32,17,037,27*4D
$GPGLL,5556.42952,N,00315.27587,W,112537.00,A,A*7B
$GPRMC,112538.00,A,5556.42963,N,00315.27370,W,0.234,,260724,,,A*61
$GPVTG,,T,,M,0.234,N,0.434,K,A*25
$GPGGA,112538.00,5556.42963,N,00315.27370,W,1,04,16.37,-36.2,M,49.9,M,,*64
$GPGSA,A,3,21,32,02,28,,,,,,,,,24.64,16.37,18.41*33
$GPGSV,4,1,13,02,59,123,29,03,72,223,14,04,18,174,19,06,07,289,*7E
$GPGSV,4,2,13,12,00,000,,14,09,246,,17,52,283,15,19,31,308,*7F
$GPGSV,4,3,13,21,41,120,32,22,19,267,,28,13,071,22,31,02,101,28*77
$GPGSV,4,4,13,32,17,037,27*4D
$GPGLL,5556.42963,N,00315.27370,W,112538.00,A,A*78
$GPRMC,112539.00,A,5556.42965,N,00315.27176,W,0.124,,260724,,,A*60
$GPVTG,,T,,M,0.124,N,0.230,K,A*25
$GPGGA,112539.00,5556.42965,N,00315.27176,W,1,04,16.35,-36.2,M,49.9,M,,*65
$GPGSA,A,3,21,32,02,28,,,,,,,,,24.60,16.35,18.38*3B
$GPGSV,4,1,13,02,59,123,29,03,72,223,12,04,18,174,18,06,07,289,*79
$GPGSV,4,2,13,12,00,000,,14,09,246,,17,52,283,14,19,31,308,*7E
$GPGSV,4,3,13,21,41,120,32,22,19,267,,28,13,071,21,31,02,101,28*74
$GPGSV,4,4,13,32,17,037,27*4D
$GPGLL,5556.42965,N,00315.27176,W,112539.00,A,A*7B
$GPRMC,112540.00,A,5556.42970,N,00315.27024,W,0.212,,260724,,,A*6A
$GPVTG,,T,,M,0.212,N,0.393,K,A*2B
$GPGGA,112540.00,5556.42970,N,00315.27024,W,1,04,16.32,-36.2,M,49.9,M,,*6E
$GPGSA,A,3,21,32,02,28,,,,,,,,,24.55,16.32,18.35*37
$GPGSV,4,1,13,02,58,123,29,03,72,223,12,04,18,174,19,06,07,289,*79
$GPGSV,4,2,13,12,00,000,,14,09,246,,17,52,283,14,19,31,308,*7E
$GPGSV,4,3,13,21,41,120,32,22,19,267,,28,13,071,21,31,02,101,28*74
$GPGSV,4,4,13,32,17,037,27*4D
$GPGLL,5556.42970,N,00315.27024,W,112540.00,A,A*77
$GPRMC,112541.00,A,5556.42974,N,00315.26799,W,0.475,,260724,,,A*68
$GPVTG,,T,,M,0.475,N,0.879,K,A*23
$GPGGA,112541.00,5556.42974,N,00315.26799,W,1,04,16.29,-36.2,M,49.9,M,,*61
$GPGSA,A,3,21,32,02,28,,,,,,,,,24.51,16.29,18.32*3E
$GPGSV,4,1,13,02,58,123,29,03,73,222,11,04,18,174,18,06,07,289,*7B
$GPGSV,4,2,13,12,00,000,,14,09,246,,17,52,283,15,19,31,308,*7F
$GPGSV,4,3,13,21,41,120,32,22,19,267,,28,13,071,21,31,02,101,27*7B
$GPGSV,4,4,13,32,17,037,27*4D
$GPGLL,5556.42974,N,00315.26799,W,112541.00,A,A*72
$GPRMC,112542.00,A,5556.42984,N,00315.26639,W,0.517,,260724,,,A*6A
$GPVTG,,T,,M,0.517,N,0.958,K,A*24
$GPGGA,112542.00,5556.42984,N,00315.26639,W,1,04,16.26,-36.2,M,49.9,M,,*69
$GPGSA,A,3,21,32,02,28,,,,,,,,,24.47,16.26,18.29*3C
$GPGSV,4,1,13,02,58,123,29,03,73,222,11,04,19,174,18,06,07,289,*7A
$GPGSV,4,2,13,12,00,000,,14,09,246,,17,52,283,14,19,31,308,*7E
$GPGSV,4,3,13,21,41,120,32,22,19,267,,28,13,071,22,31,02,101,27*78
$GPGSV,4,4,13,32,17,037,27*4D
$GPGLL,5556.42984,N,00315.26639,W,112542.00,A,A*75
$GPRMC,112543.00,A,5556.42996,N,00315.26388,W,0.836,,260724,,,A*69
$GPVTG,,T,,M,0.836,N,1.549,K,A*27
$GPGGA,112543.00,5556.42996,N,00315.26388,W,1,04,16.23,-36.2,M,49.9,M,,*61
$GPGSA,A,3,21,32,02,28,,,,,,,,,24.43,16.23,18.26*32
$GPGSV,4,1,13,02,58,123,30,03,73,222,11,04,19,174,18,06,07,289,*72
$GPGSV,4,2,13,12,00,000,,14,09,246,,17,52,283,15,19,31,308,*7F
$GPGSV,4,3,13,21,41,120,32,22,19,267,,28,13,071,21,31,02,101,27*7B
$GPGSV,4,4,13,32,17,037,27*4D
$GPGLL,5556.42996,N,00315.26388,W,112543.00,A,A*78
$GPRMC,112544.00,A,5556.42997,N,00315.26183,W,0.966,,260724,,,A*62
$GPVTG,,T,,M,0.966,N,1.788,K,A*2C
$GPGGA,112544.00,5556.42997,N,00315.26183,W,1,04,16.20,-36.2,M,49.9,M,,*6D
$GPGSA,A,3,21,32,02,28,,,,,,,,,24.39,16.20,18.24*3E
$GPGSV,4,1,13,02,58,123,29,03,73,222,,04,19,174,18,06,07,289,*7A
$GPGSV,4,2,13,12,00,000,,14,09,246,,17,52,283,15,19,31,308,*7F
$GPGSV,4,3,13,21,41,120,32,22,19,267,,28,13,071,21,31,02,101,27*7B
$GPGSV,4,4,13,32,17,037,27*4D
$GPGLL,5556.42997,N,00315.26183,W,112544.00,A,A*77
$GPRMC,112545.00,A,5556.42994,N,00315.26031,W,0.935,,260724,,,A*6E
$GPVTG,,T,,M,0.935,N,1.732,K,A*2B
$GPGGA,112545.00,5556.42994,N,00315.26031,W,1,04,16.17,-36.2,M,49.9,M,,*63
$GPGSA,A,3,21,32,02,28,,,,,,,,,24.35,16.17,18.21*33
$GPGSV,4,1,13,02,58,123,29,03,73,222,,04,19,174,19,06,07,289,*7B
$GPGSV,4,2,13,12,00,000,,14,09,246,,17,52,283,15,19,31,308,*7F
$GPGSV,4,3,13,21,41,120,32,22,19,267,,28,13,071,21,31,02,101,27*7B
$GPGSV,4,4,13,32,17,037,27*4D
$GPGLL,5556.42994,N,00315.26031,W,112545.00,A,A*7D
$GPRMC,112546.00,A,5556.42992,N,00315.25949,W,0.704,,260724,,,A*62
$GPVTG,,T,,M,0.704,N,1.304,K,A*26
$GPGGA,112546.00,5556.42992,N,00315.25949,W,1,04,16.15,-36.2,M,49.9,M,,*61
$GPGSA,A,3,21,32,02,28,,,,,,,,,24.31,16.15,18.18*3F
$GPGSV,4,1,13,02,58,123,29,03,73,222,,04,19,174,19,06,07,289,*7B
$GPGSV,4,2,13,12,00,000,,14,09,246,,17,52,283,15,19,31,308,*7F
$GPGSV,4,3,13,21,41,120,32,22,19,267,,28,13,071,21,31,02,101,27*7B
$GPGSV,4,4,13,32,17,037,27*4D
$GPGLL,5556.42992,N,00315.25949,W,112546.00,A,A*7D
$GPRMC,112547.00,A,5556.42995,N,00315.25815,W,0.668,,260724,,,A*67
$GPVTG,,T,,M,0.668,N,1.237,K,A*2C
$GPGGA,112547.00,5556.42995,N,00315.25815,W,1,04,16.12,-36.2,M,49.9,M,,*68
$GPGSA,A,3,21,32,02,28,,,,,,,,,24.27,16.12,18.15*32
$GPGSV,4,1,13,02,58,123,28,03,73,222,,04,19,174,19,06,07,289,*7A
$GPGSV,4,2,13,12,00,000,,14,09,246,,17,52,283,15,19,31,308,*7F
$GPGSV,4,3,13,21,41,120,32,22,19,267,,28,13,071,21,31,02,101,27*7B
$GPGSV,4,4,13,32,17,037,27*4D
$GPGLL,5556.42995,N,00315.25815,W,112547.00,A,A*73
$GPRMC,112548.00,A,5556.43003,N,00315.25613,W,0.907,,260724,,,A*61
$GPVTG,,T,,M,0.907,N,1.680,K,A*22
$GPGGA,112548.00,5556.43003,N,00315.25613,W,1,04,16.09,-36.2,M,49.9,M,,*62
$GPGSA,A,3,21,32,02,28,,,,,,,,,24.24,16.09,18.12*3C
$GPGSV,4,1,13,02,58,123,28,03,73,222,,04,19,174,19,06,07,289,*7A
$GPGSV,4,2,13,12,00,000,,14,09,246,,17,52,283,14,19,31,308,*7E
$GPGSV,4,3,13,21,41,120,32,22,19,267,,28,13,071,21,31,02,101,27*7B
$GPGSV,4,4,13,32,17,037,27*4D
$GPGLL,5556.43003,N,00315.25613,W,112548.00,A,A*73
$GPRMC,112549.00,A,5556.43004,N,00315.25485,W,0.880,,260724,,,A*64
$GPVTG,,T,,M,0.880,N,1.629,K,A*2F
$GPGGA,112549.00,5556.43004,N,00315.25485,W,1,04,16.06,-36.2,M,49.9,M,,*66
$GPGSA,A,3,21,32,02,28,,,,,,,,,24.20,16.06,18.09*3D
$GPGSV,4,1,13,02,58,123,28,03,73,222,,04,19,174,19,06,07,289,*7A
$GPGSV,4,2,13,12,00,000,,14,09,246,,17,52,283,14,19,31,308,*7E
$GPGSV,4,3,13,21,41,120,32,22,19,267,,28,13,071,21,31,02,101,27*7B
$GPGSV,4,4,13,32,17,037,27*4D
$GPGLL,5556.43004,N,00315.25485,W,112549.00,A,A*78
$GPRMC,112550.00,A,5556.43004,N,00315.25424,W,0.625,,260724,,,A*66
$GPVTG,,T,,M,0.625,N,1.157,K,A*20
$GPGGA,112550.00,5556.43004,N,00315.25424,W,1,04,16.03,-36.2,M,49.9,M,,*60
$GPGSA,A,3,21,32,02,28,,,,,,,,,24.16,16.03,18.07*33
$GPGSV,4,1,13,02,58,123,28,03,73,222,,04,19,174,19,06,07,289,*7A
$GPGSV,4,2,13,12,00,000,,14,09,246,,17,52,283,16,19,31,308,*7C
$GPGSV,4,3,13,21,41,120,32,22,19,267,,28,13,071,22,31,02,101,27*78
$GPGSV,4,4,13,32,17,037,27*4D
$GPGLL,5556.43004,N,00315.25424,W,112550.00,A,A*7B
$GPRMC,112551.00,A,5556.43007,N,00315.25372,W,0.332,,260724,,,A*63
$GPVTG,,T,,M,0.332,N,0.614,K,A*22
$GPGGA,112551.00,5556.43007,N,00315.25372,W,1,04,16.01,-36.2,M,49.9,M,,*64
$GPGSA,A,3,21,32,02,28,,,,,,,,,24.12,16.01,18.04*36
$GPGSV,4,1,13,02,58,123,28,03,73,222,,04,19,174,20,06,07,289,*70
$GPGSV,4,2,13,12,00,000,,14,09,246,,17,52,283,16,19,31,308,*7C
$GPGSV,4,3,13,21,41,120,32,22,19,267,,28,13,071,21,31,02,101,28*74
$GPGSV,4,4,13,32,17,037,27*4D
$GPGLL,5556.43007,N,00315.25372,W,112551.00,A,A*7D
$GPRMC,112552.00,A,5556.43015,N,00315.25303,W,0.158,,260724,,,A*6B
$GPVTG,,T,,M,0.158,N,0.292,K,A*26
$GPGGA,112552.00,5556.43015,N,00315.25303,W,1,04,15.98,-36.1,M,49.9,M,,*62
$GPGSA,A,3,21,32,02,28,,,,,,,,,24.08,15.98,18.01*3B
$GPGSV,4,1,13,02,58,123,28,03,73,222,,04,19,174,20,06,07,289,*70
$GPGSV,4,2,13,12,00,000,,14,08,245,,17,52,283,16,19,31,308,*7E
$GPGSV,4,3,13,21,41,120,32,22,19,267,,28,13,071,21,31,02,101,28*74
$GPGSV,4,4,13,32,17,037,27*4D
$GPGLL,5556.43015,N,00315.25303,W,112552.00,A,A*7B
$GPRMC,112553.00,A,5556.43013,N,00315.25126,W,0.292,,260724,,,A*6C
$GPVTG,,T,,M,0.292,N,0.541,K,A*2A
$GPGGA,112553.00,5556.43013,N,00315.25126,W,1,04,15.95,-36.1,M,49.9,M,,*6D
$GPGSA,A,3,21,32,02,28,,,,,,,,,24.04,15.95,17.98*35
$GPGSV,4,1,13,02,58,123,28,03,73,222,,04,19,174,20,06,07,289,*70
$GPGSV,4,2,13,12,00,000,,14,08,245,,17,52,283,15,19,31,308,*7D
$GPGSV,4,3,13,21,41,120,32,22,19,267,,28,13,071,21,31,02,101,28*74
$GPGSV,4,4,13,32,17,037,27*4D
$GPGLL,5556.43013,N,00315.25126,W,112553.00,A,A*79
$GPRMC,112554.00,A,5556.43012,N,00315.24977,W,0.381,,260724,,,A*64
$GPVTG,,T,,M,0.381,N,0.705,K,A*2B
$GPGGA,112554.00,5556.43012,N,00315.24977,W,1,04,15.92,-36.1,M,49.9,M,,*61
$GPGSA,A,3,21,32,02,28,,,,,,,,,24.00,15.92,17.96*38
$GPGSV,4,1,13,02,58,123,27,03,73,222,,04,19,174,20,06,07,289,*7F
$GPGSV,4,2,13,12,00,000,,14,08,245,,17,52,283,13,19,31,308,*7B
$GPGSV,4,3,13,21,41,120,32,22,19,267,,28,13,071,21,31,02,101,27*7B
$GPGSV,4,4,13,32,17,037,27*4D
$GPGLL,5556.43012,N,00315.24977,W,112554.00,A,A*72
$GPRMC,112555.00,A,5556.43013,N,00315.24872,W,0.370,,260724,,,A*6E
$GPVTG,,T,,M,0.370,N,0.686,K,A*2F
$GPGGA,112555.00,5556.43013,N,00315.24872,W,1,04,15.90,-36.1,M,49.9,M,,*67
$GPGSA,A,3,21,32,02,28,,,,,,,,,23.96,15.90,17.93*37
$GPGSV,4,1,13,02,58,123,26,03,73,222,,04,19,174,19,06,07,289,*74
$GPGSV,4,2,13,12,00,000,,14,08,245,,17,52,282,15,19,31,308,*7C
$GPGSV,4,3,13,21,41,120,32,22,19,267,,28,13,071,20,31,02,101,28*75
$GPGSV,4,4,13,32,17,037,27*4D
$GPGLL,5556.43013,N,00315.24872,W,112555.00,A,A*76
$GPRMC,112556.00,A,5556.43010,N,00315.24798,W,0.265,,260724,,,A*60
$GPVTG,,T,,M,0.265,N,0.491,K,A*2E
$GPGGA,112556.00,5556.43010,N,00315.24798,W,1,04,15.87,-36.1,M,49.9,M,,*6A
$GPGSA,A,3,21,32,02,28,,,,,,,,,23.92,15.87,17.90*36
$GPGSV,4,1,13,02,58,123,26,03,73,222,,04,19,174,19,06,07,289,*74
$GPGSV,4,2,13,12,00,000,,14,08,245,,17,52,282,16,19,31,308,*7F
$GPGSV,4,3,13,21,41,120,32,22,19,267,,28,13,071,20,31,02,101,28*75
$GPGSV,4,4,13,32,17,037,27*4D
$GPGLL,5556.43010,N,00315.24798,W,112556.00,A,A*7D
$GPRMC,112557.00,A,5556.43009,N,00315.24756,W,0.136,,260724,,,A*6E
$GPVTG,,T,,M,0.136,N,0.252,K,A*22
$GPGGA,112557.00,5556.43009,N,00315.24756,W,1,04,15.84,-36.1,M,49.9,M,,*62
$GPGSA,A,3,21,32,02,28,,,,,,,,,23.88,15.84,17.87*38
$GPGSV,4,1,13,02,58,123,26,03,73,222,,04,19,174,19,06,07,289,*74
$GPGSV,4,2,13,12,00,000,,14,08,245,,17,52,282,16,19,32,308,*7C
$GPGSV,4,3,13,21,41,120,31,22,19,267,,28,13,071,21,31,02,101,27*78
$GPGSV,4,4,13,32,17,037,26*4C
$GPGLL,5556.43009,N,00315.24756,W,112557.00,A,A*76
$GPRMC,112558.00,A,5556.43012,N,00315.24671,W,0.141,,260724,,,A*6F
$GPVTG,,T,,M,0.141,N,0.261,K,A*22
$GPGGA,112558.00,5556.43012,N,00315.24671,W,1,04,15.82,-36.0,M,49.9,M,,*64
$GPGSA,A,3,21,32,02,28,,,,,,,,,23.85,15.82,17.85*31
$GPGSV,4,1,13,02,58,123,26,03,73,222,,04,19,174,19,06,07,289,*74
$GPGSV,4,2,13,12,00,000,,14,08,245,,17,52,282,16,19,32,308,*7C
$GPGSV,4,3,13,21,41,120,32,22,19,267,,28,13,071,20,31,02,101,28*75
$GPGSV,4,4,13,32,17,037,26*4C
$GPGLL,5556.43012,N,00315.24671,W,112558.00,A,A*77
$GPRMC,112559.00,A,5556.43028,N,00315.24534,W,0.401,,260724,,,A*64
$GPVTG,,T,,M,0.401,N,0.744,K,A*21
$GPGGA,112559.00,5556.43028,N,00315.24534,W,1,04,15.79,-36.0,M,49.9,M,,*6A
$GPGSA,A,3,21,32,02,28,,,,,,,,,23.81,15.79,17.82*36
$GPGSV,4,1,13,02,58,123,26,03,73,222,,04,19,174,20,06,07,289,*7E
$GPGSV,4,2,13,12,00,000,,14,08,245,,17,52,282,16,19,32,308,*7C
$GPGSV,4,3,13,21,40,120,31,22,19,267,,28,13,071,20,31,02,101,27*78
$GPGSV,4,4,13,32,17,037,26*4C
$GPGLL,5556.43028,N,00315.24534,W,112559.00,A,A*7D
$GPRMC,112600.00,A,5556.43042,N,00315.24306,W,0.794,,260724,,,A*6F
$GPVTG,,T,,M,0.794,N,1.470,K,A*2B
$GPGGA,112600.00,5556.43042,N,00315.24306,W,1,04,15.76,-36.0,M,49.9,M,,*61
$GPGSA,A,3,21,32,02,28,,,,,,,,,23.77,15.76,17.79*34
$GPGSV,4,1,13,02,58,123,25,03,73,222,,04,19,174,20,06,07,289,*7D
$GPGSV,4,2,13,12,00,000,,14,08,245,,17,52,282,16,19,32,308,*7C
$GPGSV,4,3,13,21,40,120,31,22,19,266,,28,13,071,20,31,02,101,27*79
$GPGSV,4,4,13,32,17,037,26*4C
$GPGLL,5556.43042,N,00315.24306,W,112600.00,A,A*79
$GPRMC,112601.00,A,5556.43063,N,00315.24052,W,1.270,,260724,,,A*61
$GPVTG,,T,,M,1.270,N,2.351,K,A*22
$GPGGA,112601.00,5556.43063,N,00315.24052,W,1,04,15.74,-35.9,M,49.9,M,,*69
$GPGSA,A,3,21,32,02,28,,,,,,,,,23.73,15.74,17.77*3C
$GPGSV,4,1,13,02,58,123,25,03,73,222,,04,19,174,20,06,07,289,*7D
$GPGSV,4,2,13,12,00,000,,14,08,245,,17,52,282,15,19,32,308,*7F
$GPGSV,4,3,13,21,40,120,31,22,19,266,,28,13,071,20,31,02,101,27*79
$GPGSV,4,4,13,32,17,037,26*4C
$GPGLL,5556.43063,N,00315.24052,W,112601.00,A,A*79
$GPRMC,112602.00,A,5556.43059,N,00315.24015,W,0.919,,260724,,,A*6D
$GPVTG,,T,,M,0.919,N,1.703,K,A*27
$GPGGA,112602.00,5556.43059,N,00315.24015,W,1,04,15.71,-35.9,M,49.9,M,,*65
$GPGSA,A,3,21,32,02,28,,,,,,,,,23.69,15.71,17.74*31
$GPGSV,4,1,13,02,58,123,24,03,73,222,,04,19,174,20,06,07,289,*7C
$GPGSV,4,2,13,12,00,000,,14,08,245,,17,52,282,15,19,32,308,*7F
$GPGSV,4,3,13,21,40,120,31,22,19,266,,28,13,071,20,31,02,101,28*76
$GPGSV,4,4,13,32,17,037,26*4C
$GPGLL,5556.43059,N,00315.24015,W,112602.00,A,A*70
$GPRMC,112603.00,A,5556.43062,N,00315.23952,W,0.830,,260724,,,A*63
$GPVTG,,T,,M,0.830,N,1.538,K,A*27
$GPGGA,112603.00,5556.43062,N,00315.23952,W,1,04,15.68,-35.9,M,49.9,M,,*69
$GPGSA,A,3,21,32,02,28,,,,,,,,,23.66,15.68,17.71*33
$GPGSV,4,1,13,02,58,123,25,03,73,222,,04,19,174,20,06,07,289,*7D
$GPGSV,4,2,13,12,00,000,,14,08,245,,17,52,282,16,19,32,308,*7C
$GPGSV,4,3,13,21,40,120,31,22,19,266,,28,13,071,20,31,02,101,28*76
$GPGSV,4,4,13,32,17,037,26*4C
$GPGLL,5556.43062,N,00315.23952,W,112603.00,A,A*74
$GPRMC,112604.00,A,5556.43070,N,00315.23942,W,0.601,,260724,,,A*6A
$GPVTG,,T,,M,0.601,N,1.112,K,A*27
$GPGGA,112604.00,5556.43070,N,00315.23942,W,1,04,15.66,-35.8,M,49.9,M,,*63
$GPGSA,A,3,21,32,02,28,,,,,,,,,23.62,15.66,17.69*30
$GPGSV,4,1,13,02,58,123,25,03,73,222,,04,19,174,21,06,07,289,*7C
$GPGSV,4,2,13,12,00,000,,14,08,245,,17,52,282,17,19,32,308,*7D
$GPGSV,4,3,13,21,40,120,31,22,19,266,,28,13,071,19,31,02,101,28*7C
$GPGSV,4,4,13,32,17,037,27*4D
$GPGLL,5556.43070,N,00315.23942,W,112604.00,A,A*71
$GPRMC,112605.00,A,5556.43076,N,00315.23822,W,0.697,,260724,,,A*65
$GPVTG,,T,,M,0.697,N,1.291,K,A*20
$GPGGA,112605.00,5556.43076,N,00315.23822,W,1,04,15.63,-35.8,M,49.9,M,,*66
$GPGSA,A,3,21,32,02,28,,,,,,,,,23.58,15.63,17.66*33
$GPGSV,4,1,13,02,58,123,25,03,73,222,,04,19,174,21,06,07,289,*7C
$GPGSV,4,2,13,12,00,000,,14,08,245,,17,52,282,17,19,32,308,*7D
$GPGSV,4,3,13,21,40,120,31,22,19,266,,28,13,071,19,31,02,101,28*7C
$GPGSV,4,4,13,32,17,037,27*4D
$GPGLL,5556.43076,N,00315.23822,W,112605.00,A,A*71
$GPRMC,112606.00,A,5556.43079,N,00315.23702,W,0.810,,260724,,,A*65
$GPVTG,,T,,M,0.810,N,1.501,K,A*2F
$GPGGA,112606.00,5556.43079,N,00315.23702,W,1,04,15.60,-35.7,M,49.9,M,,*6B
$GPGSA,A,3,21,32,02,28,,,,,,,,,23.54,15.60,17.63*39
$GPGSV,4,1,13,02,58,123,25,03,73,222,,04,19,174,22,06,07,289,*7F
$GPGSV,4,2,13,12,00,000,,14,08,245,,17,52,282,17,19,32,308,*7D
$GPGSV,4,3,13,21,40,120,30,22,19,266,,28,13,071,20,31,02,101,27*78
$GPGSV,4,4,13,32,17,037,27*4D
$GPGLL,5556.43079,N,00315.23702,W,112606.00,A,A*70
$GPRMC,112607.00,A,5556.43076,N,00315.23659,W,0.732,,260724,,,A*6B
$GPVTG,,T,,M,0.732,N,1.356,K,A*24
$GPGGA,112607.00,5556.43076,N,00315.23659,W,1,04,15.58,-35.7,M,49.9,M,,*61
$GPGSA,A,3,21,32,02,28,,,,,,,,,23.51,15.58,17.61*35
$GPGSV,4,1,13,02,58,123,25,03,73,222,,04,19,174,21,06,07,289,*7C
$GPGSV,4,2,13,12,00,000,,14,08,245,,17,52,282,16,19,32,308,*7C
$GPGSV,4,3,13,21,40,120,31,22,19,266,,28,13,071,20,31,02,101,27*79
$GPGSV,4,4,13,32,17,037,27*4D
$GPGLL,5556.43076,N,00315.23659,W,112607.00,A,A*71
$GPRMC,112608.00,A,5556.43076,N,00315.23707,W,0.396,,260724,,,A*64
$GPVTG,,T,,M,0.396,N,0.734,K,A*2F
$GPGGA,112608.00,5556.43076,N,00315.23707,W,1,04,15.55,-35.7,M,49.9,M,,*69
$GPGSA,A,3,21,32,02,28,,,,,,,,,23.47,15.55,17.58*35
$GPGSV,4,1,13,02,58,123,24,03,73,222,,04,19,174,21,06,07,289,*7D
$GPGSV,4,2,13,12,00,000,,14,08,245,,17,52,282,16,19,32,308,*7C
$GPGSV,4,3,13,21,40,120,31,22,19,266,,28,13,071,19,31,02,101,27*73
$GPGSV,4,4,13,32,17,037,27*4D
$GPGLL,5556.43076,N,00315.23707,W,112608.00,A,A*74
$GPRMC,112609.00,A,5556.43080,N,00315.23616,W,0.524,,260724,,,A*62
$GPVTG,,T,,M,0.524,N,0.970,K,A*2E
$GPGGA,112609.00,5556.43080,N,00315.23616,W,1,04,15.52,-35.6,M,49.9,M,,*66
$GPGSA,A,3,21,32,02,28,,,,,,,,,23.43,15.52,17.55*3B
$GPGSV,4,1,13,02,58,123,25,03,73,222,,04,19,174,21,06,07,289,*7C
$GPGSV,4,2,13,12,00,000,,14,08,245,,17,52,282,16,19,32,308,*7C
$GPGSV,4,3,13,21,40,120,31,22,19,266,,28,13,071,19,31,03,101,27*72
$GPGSV,4,4,13,32,17,037,27*4D
$GPGLL,5556.43080,N,00315.23616,W,112609.00,A,A*7D
$GPRMC,112610.00,A,5556.43084,N,00315.23612,W,0.395,,260724,,,A*66
$GPVTG,,T,,M,0.395,N,0.732,K,A*2A
$GPGGA,112610.00,5556.43084,N,00315.23612,W,1,04,15.50,-35.6,M,49.9,M,,*6C
$GPGSA,A,3,21,32,02,28,,,,,,,,,23.40,15.50,17.53*3C
$GPGSV,4,1,13,02,58,123,25,03,73,222,,04,19,174,20,06,07,289,*7D
$GPGSV,4,2,13,12,00,000,,14,08,245,,17,52,282,17,19,32,308,*7D
$GPGSV,4,3,13,21,40,120,31,22,19,266,,28,13,071,18,31,03,101,27*73
$GPGSV,4,4,13,32,16,037,27*4C
$GPGLL,5556.43084,N,00315.23612,W,112610.00,A,A*75
$GPRMC,112611.00,A,5556.43080,N,00315.23641,W,0.246,,260724,,,A*6A
$GPVTG,,T,,M,0.246,N,0.456,K,A*24
$GPGGA,112611.00,5556.43080,N,00315.23641,W,1,04,15.47,-35.6,M,49.9,M,,*69
$GPGSA,A,3,21,32,02,28,,,,,,,,,23.36,15.47,17.50*38
$GPGSV,4,1,13,02,58,123,25,03,73,222,,04,19,174,21,06,07,289,*7C
$GPGSV,4,2,13,12,00,000,,14,08,245,,17,52,282,17,19,32,308,*7D
$GPGSV,4,3,13,21,40,120,31,22,19,266,,28,13,071,18,31,03,101,27*73
$GPGSV,4,4,13,32,16,037,27*4C
$GPGLL,5556.43080,N,00315.23641,W,112611.00,A,A*76
$GPRMC,112612.00,A,5556.43084,N,00315.23511,W,0.601,,260724,,,A*6C
$GPVTG,,T,,M,0.601,N,1.112,K,A*27
$GPGGA,112612.00,5556.43084,N,00315.23511,W,1,04,15.45,-35.5,M,49.9,M,,*69
$GPGSA,A,3,21,32,02,28,,,,,,,,,23.32,15.45,17.48*37
$GPGSV,4,1,13,02,58,123,25,03,73,222,,04,19,174,20,06,07,289,*7D
$GPGSV,4,2,13,12,00,000,,14,08,245,,17,52,282,18,19,32,308,*72
$GPGSV,4,3,13,21,40,120,30,22,19,266,,28,13,071,19,31,03,101,27*73
$GPGSV,4,4,13,32,16,037,27*4C
$GPGLL,5556.43084,N,00315.23511,W,112612.00,A,A*77
$GPRMC,112613.00,A,5556.43093,N,00315.23466,W,0.607,,260724,,,A*6C
$GPVTG,,T,,M,0.607,N,1.124,K,A*24
$GPGGA,112613.00,5556.43093,N,00315.23466,W,1,04,15.42,-35.4,M,49.9,M,,*69
$GPGSA,A,3,21,32,02,28,,,,,,,,,23.29,15.42,17.45*37
$GPGSV,4,1,13,02,58,123,25,03,73,222,,04,19,174,21,06,07,289,*7C
$GPGSV,4,2,13,12,00,000,,14,08,245,,17,52,282,,19,32,308,*7B
$GPGSV,4,3,13,21,40,120,30,22,19,266,,28,13,071,21,31,03,101,27*78
$GPGSV,4,4,13,32,16,037,27*4C
$GPGLL,5556.43093,N,00315.23466,W,112613.00,A,A*71
$GPRMC,112614.00,A,5556.43099,N,00315.23446,W,0.518,,260724,,,A*6E
$GPVTG,,T,,M,0.518,N,0.959,K,A*2A
$GPGGA,112614.00,5556.43099,N,00315.23446,W,1,04,15.39,-35.4,M,49.9,M,,*6A
$GPGSA,A,3,21,32,02,28,,,,,,,,,23.25,15.39,17.42*30
$GPGSV,4,1,13,02,58,123,26,03,73,222,,04,19,174,21,06,07,289,*7F
$GPGSV,4,2,13,12,00,000,,14,08,245,,17,52,282,,19,32,308,*7B
$GPGSV,4,3,13,21,40,120,30,22,19,266,,28,13,071,21,31,03,101,27*78
$GPGSV,4,4,13,32,16,037,27*4C
$GPGLL,5556.43099,N,00315.23446,W,112614.00,A,A*7E
$GPRMC,112615.00,A,5556.43089,N,00315.23570,W,0.166,,260724,,,A*67
$GPVTG,,T,,M,0.166,N,0.307,K,A*26
$GPGGA,112615.00,5556.43089,N,00315.23570,W,1,04,15.37,-35.4,M,49.9,M,,*60
$GPGSA,A,3,21,32,02,28,,,,,,,,,23.21,15.37,17.40*38
$GPGSV,4,1,13,02,58,123,26,03,73,222,,04,19,174,21,06,07,289,*7F
$GPGSV,4,2,13,12,00,000,,14,08,245,,17,52,282,,19,32,308,*7B
$GPGSV,4,3,13,21,40,120,30,22,19,266,,28,13,071,22,31,03,101,27*7B
$GPGSV,4,4,13,32,16,037,26*4D
$GPGLL,5556.43089,N,00315.23570,W,112615.00,A,A*7A
$GPRMC,112616.00,A,5556.43088,N,00315.23640,W,0.266,,260724,,,A*66
$GPVTG,,T,,M,0.266,N,0.493,K,A*2F
$GPGGA,112616.00,5556.43088,N,00315.23640,W,1,04,15.34,-35.3,M,49.9,M,,*66
$GPGSA,A,3,21,32,02,28,,,,,,,,,23.18,15.34,17.37*31
$GPGSV,4,1,13,02,58,123,27,03,73,222,,04,19,174,21,06,07,289,*7E
$GPGSV,4,2,13,12,00,000,,14,08,245,,17,52,282,,19,32,308,*7B
$GPGSV,4,3,13,21,40,120,30,22,19,266,,28,13,071,21,31,03,101,27*78
$GPGSV,4,4,13,32,16,037,27*4C
$GPGLL,5556.43088,N,00315.23640,W,112616.00,A,A*78
$GPRMC,112617.00,A,5556.43092,N,00315.23693,W,0.326,,260724,,,A*67
$GPVTG,,T,,M,0.326,N,0.603,K,A*21
$GPGGA,112617.00,5556.43092,N,00315.23693,W,1,04,15.32,-35.3,M,49.9,M,,*64
$GPGSA,A,3,21,32,02,28,,,,,,,,,23.14,15.32,17.35*39
$GPGSV,4,1,13,02,58,123,27,03,73,222,,04,19,174,21,06,07,289,*7E
$GPGSV,4,2,13,12,00,000,,14,08,245,,17,52,282,20,19,32,308,*79
$GPGSV,4,3,13,21,40,120,30,22,19,266,,28,13,071,20,31,03,101,27*79
$GPGSV,4,4,13,32,16,037,27*4C
$GPGLL,5556.43092,N,00315.23693,W,112617.00,A,A*7C
$GPRMC,112618.00,A,5556.43103,N,00315.23635,W,0.211,,260724,,,A*68
$GPVTG,,T,,M,0.211,N,0.391,K,A*2A
$GPGGA,112618.00,5556.43103,N,00315.23635,W,1,04,15.29,-35.2,M,49.9,M,,*65
$GPGSA,A,3,21,32,02,28,,,,,,,,,23.11,15.29,17.32*31
$GPGSV,4,1,13,02,58,123,27,03,73,222,,04,19,174,21,06,07,289,*7E
$GPGSV,4,2,13,12,00,000,,14,08,245,,17,52,282,18,19,32,308,*72
$GPGSV,4,3,13,21,40,120,30,22,19,266,,28,13,071,20,31,03,101,27*79
$GPGSV,4,4,13,32,16,037,26*4D
$GPGLL,5556.43103,N,00315.23635,W,112618.00,A,A*76
$GPRMC,112619.00,A,5556.43108,N,00315.23580,W,0.194,,260724,,,A*61
$GPVTG,,T,,M,0.194,N,0.360,K,A*2A
$GPGGA,112619.00,5556.43108,N,00315.23580,W,1,04,15.27,-35.1,M,49.9,M,,*6F
$GPGSA,A,3,21,32,02,28,,,,,,,,,23.07,15.27,17.30*3A
$GPGSV,4,1,13,02,58,123,28,03,73,222,,04,19,174,21,06,07,289,*71
$GPGSV,4,2,13,12,00,000,,14,08,245,,17,52,282,18,19,32,308,*72
$GPGSV,4,3,13,21,40,120,31,22,19,266,,28,13,071,20,31,03,101,27*78
$GPGSV,4,4,13,32,16,037,26*4D
$GPGLL,5556.43108,N,00315.23580,W,112619.00,A,A*71
$GPRMC,112620.00,A,5556.43114,N,00315.23611,W,0.322,,260724,,,A*62
$GPVTG,,T,,M,0.322,N,0.597,K,A*2B
$GPGGA,112620.00,5556.43114,N,00315.23611,W,1,04,15.24,-35.0,M,49.9,M,,*61
$GPGSA,A,3,21,32,02,28,,,,,,,,,23.03,15.24,17.27*3B
$GPGSV,4,1,13,02,58,123,28,03,73,222,,04,19,174,21,06,07,289,*71
$GPGSV,4,2,13,12,00,000,,14,08,245,,17,52,282,17,19,32,308,*7D
$GPGSV,4,3,13,21,40,120,30,22,19,266,,28,13,071,21,31,03,101,27*78
$GPGSV,4,4,13,32,16,037,26*4D
$GPGLL,5556.43114,N,00315.23611,W,112620.00,A,A*7D
$GPRMC,112621.00,A,5556.43116,N,00315.23461,W,0.195,,260724,,,A*6A
$GPVTG,,T,,M,0.195,N,0.362,K,A*29
$GPGGA,112621.00,5556.43116,N,00315.23461,W,1,04,15.22,-34.9,M,49.9,M,,*69
$GPGSA,A,3,21,32,02,28,,,,,,,,,23.00,15.22,17.24*3D
$GPGSV,4,1,13,02,58,123,28,03,73,222,,04,19,174,21,06,07,289,*71
$GPGSV,4,2,13,12,00,000,,14,08,245,,17,52,282,18,19,32,308,*72
$GPGSV,4,3,13,21,40,120,30,22,19,266,,28,13,071,21,31,03,101,28*77
$GPGSV,4,4,13,32,16,037,26*4D
$GPGLL,5556.43116,N,00315.23461,W,112621.00,A,A*7B
$GPRMC,112622.00,A,5556.43122,N,00315.23504,W,0.134,,260724,,,A*67
$GPVTG,,T,,M,0.134,N,0.249,K,A*2A
$GPGGA,112622.00,5556.43122,N,00315.23504,W,1,04,15.19,-34.9,M,49.9,M,,*67
$GPGSA,A,3,21,32,02,28,,,,,,,,,22.96,15.19,17.22*3D
$GPGSV,4,1,13,02,58,123,28,03,73,222,,04,19,174,20,06,07,289,*70
$GPGSV,4,2,13,12,00,000,,14,08,245,,17,52,282,18,19,32,308,*72
$GPGSV,4,3,13,21,40,120,30,22,19,266,,28,13,071,22,31,03,101,27*7B
$GPGSV,4,4,13,32,16,037,26*4D
$GPGLL,5556.43122,N,00315.23504,W,112622.00,A,A*7D
$GPRMC,112623.00,A,5556.43143,N,00315.23383,W,0.507,,260724,,,A*6C
$GPVTG,,T,,M,0.507,N,0.939,K,A*22
$GPGGA,112623.00,5556.43143,N,00315.23383,W,1,04,15.17,-34.7,M,49.9,M,,*68
$GPGSA,A,3,21,32,02,28,,,,,,,,,22.93,15.17,17.19*3E
$GPGSV,4,1,13,02,58,123,29,03,73,222,,04,19,174,20,06,07,289,*71
$GPGSV,4,2,13,12,00,000,,14,08,245,,17,52,282,18,19,32,308,*72
$GPGSV,4,3,13,21,40,120,30,22,19,266,,28,13,071,21,31,03,101,28*77
$GPGSV,4,4,13,32,16,037,27*4C
$GPGLL,5556.43143,N,00315.23383,W,112623.00,A,A*72
$GPRMC,112624.00,A,5556.43138,N,00315.23273,W,0.546,,260724,,,A*6C
$GPVTG,,T,,M,0.546,N,1.011,K,A*25
$GPGGA,112624.00,5556.43138,N,00315.23273,W,1,04,15.14,-34.6,M,49.9,M,,*6F
$GPGSA,A,3,21,32,02,28,,,,,,,,,22.89,15.14,17.17*38
$GPGSV,4,1,13,02,58,123,29,03,73,222,,04,19,174,20,06,07,289,*71
$GPGSV,4,2,13,12,00,000,,14,08,245,,17,52,282,18,19,32,308,*72
$GPGSV,4,3,13,21,40,120,30,22,19,266,,28,13,071,21,31,03,101,28*77
$GPGSV,4,4,13,32,16,037,27*4C
$GPGLL,5556.43138,N,00315.23273,W,112624.00,A,A*77
$GPRMC,112625.00,A,5556.43142,N,00315.23249,W,0.504,,260724,,,A*6F
$GPVTG,,T,,M,0.504,N,0.933,K,A*2B
$GPGGA,112625.00,5556.43142,N,00315.23249,W,1,04,15.12,-34.5,M,49.9,M,,*6F
$GPGSA,A,3,21,32,02,28,,,,,,,,,22.86,15.12,17.14*32
$GPGSV,4,1,13,02,58,123,29,03,73,222,,04,19,174,20,06,07,289,*71
$GPGSV,4,2,13,12,00,000,,14,08,245,,17,52,282,18,19,32,308,*72
$GPGSV,4,3,13,21,40,120,30,22,19,266,,28,13,071,21,31,03,101,28*77
$GPGSV,4,4,13,32,16,037,27*4C
$GPGLL,5556.43142,N,00315.23249,W,112625.00,A,A*72
$GPRMC,112626.00,A,5556.43138,N,00315.23110,W,0.799,,260724,,,A*68
$GPVTG,,T,,M,0.799,N,1.479,K,A*2F
$GPGGA,112626.00,5556.43138,N,00315.23110,W,1,04,15.09,-34.4,M,49.9,M,,*65
$GPGSA,A,3,21,32,02,28,,,,,,,,,22.82,15.09,17.12*3A
$GPGSV,4,1,13,02,58,123,29,03,73,222,,04,19,174,21,06,07,289,*70
$GPGSV,4,2,13,12,00,000,,14,08,245,,17,52,282,17,19,32,308,*7D
$GPGSV,4,3,13,21,40,120,30,22,19,266,,28,13,071,21,31,03,101,28*77
$GPGSV,4,4,13,32,16,037,26*4D
$GPGLL,5556.43138,N,00315.23110,W,112626.00,A,A*73
$GPRMC,112627.00,A,5556.43143,N,00315.23046,W,0.874,,260724,,,A*6B
$GPVTG,,T,,M,0.874,N,1.619,K,A*27
$GPGGA,112627.00,5556.43143,N,00315.23046,W,1,04,15.07,-34.3,M,49.9,M,,*63
$GPGSA,A,3,21,32,02,28,,,,,,,,,22.79,15.07,17.09*3A
$GPGSV,4,1,13,02,58,123,29,03,73,222,,04,19,174,21,06,07,289,*70
$GPGSV,4,2,13,12,00,000,,14,08,245,,17,52,282,16,19,32,308,*7C
$GPGSV,4,3,13,21,40,120,30,22,19,266,,28,13,071,21,31,03,101,28*77
$GPGSV,4,4,13,32,16,037,25*4E
$GPGLL,5556.43143,N,00315.23046,W,112627.00,A,A*7C
$GPRMC,112628.00,A,5556.43148,N,00315.22980,W,0.996,,260724,,,A*60
$GPVTG,,T,,M,0.996,N,1.844,K,A*2C
$GPGGA,112628.00,5556.43148,N,00315.22980,W,1,04,15.04,-34.2,M,49.9,M,,*67
$GPGSA,A,3,21,32,02,28,,,,,,,,,22.75,15.04,17.07*3B
$GPGSV,4,1,13,02,58,123,29,03,73,222,,04,19,174,21,06,07,289,*70
$GPGSV,4,2,13,12,00,000,,14,08,245,,17,52,282,15,19,32,308,*7F
$GPGSV,4,3,13,21,40,120,30,22,19,266,,28,13,071,21,31,03,101,29*76
$GPGSV,4,4,13,32,16,037,25*4E
$GPGLL,5556.43148,N,00315.22980,W,112628.00,A,A*7A
$GPRMC,112629.00,A,5556.43149,N,00315.23012,W,0.765,,260724,,,A*61
$GPVTG,,T,,M,0.765,N,1.416,K,A*25
$GPGGA,112629.00,5556.43149,N,00315.23012,W,1,04,15.02,-34.1,M,49.9,M,,*61
$GPGSA,A,3,21,32,02,28,,,,,,,,,22.72,15.02,17.05*38
$GPGSV,4,1,13,02,58,123,30,03,73,222,,04,19,174,21,06,07,289,*78
$GPGSV,4,2,13,12,00,000,,14,08,245,,17,52,282,16,19,32,308,*7C
$GPGSV,4,3,13,21,40,120,30,22,19,266,,28,13,071,22,31,03,101,28*74
$GPGSV,4,4,13,32,16,037,26*4D
$GPGLL,5556.43149,N,00315.23012,W,112629.00,A,A*79
$GPRMC,112630.00,A,5556.43148,N,00315.23001,W,0.750,,260724,,,A*6C
$GPVTG,,T,,M,0.750,N,1.390,K,A*2A
$GPGGA,112630.00,5556.43148,N,00315.23001,W,1,04,14.99,-34.0,M,49.9,M,,*68
$GPGSA,A,3,21,32,02,28,,,,,,,,,22.68,14.99,17.02*37
$GPGSV,4,1,13,02,58,123,30,03,73,222,,04,19,174,22,06,07,289,*7B
$GPGSV,4,2,13,12,00,000,,14,08,245,,17,52,282,16,19,32,308,*7C
$GPGSV,4,3,13,21,40,120,30,22,19,266,,28,13,071,23,31,03,101,28*75
$GPGSV,4,4,13,32,16,037,26*4D
$GPGLL,5556.43148,N,00315.23001,W,112630.00,A,A*72
$GPRMC,112631.00,A,5556.43148,N,00315.22966,W,0.809,,260724,,,A*67
$GPVTG,,T,,M,0.809,N,1.498,K,A*26
$GPGGA,112631.00,5556.43148,N,00315.22966,W,1,04,14.97,-33.9,M,49.9,M,,*60
$GPGSA,A,3,21,32,02,28,,,,,,,,,22.65,14.97,17.00*36
$GPGSV,4,1,13,02,58,123,30,03,73,222,,04,19,174,22,06,07,289,*7B
$GPGSV,4,2,13,12,00,000,,14,08,245,,17,52,282,17,19,32,308,*7D
$GPGSV,4,3,13,21,40,120,30,22,19,266,,28,13,071,23,31,03,101,28*75
$GPGSV,4,4,13,32,16,037,26*4D
$GPGLL,5556.43148,N,00315.22966,W,112631.00,A,A*7A
$GPRMC,112632.00,A,5556.43149,N,00315.22988,W,0.617,,260724,,,A*64
$GPVTG,,T,,M,0.617,N,1.143,K,A*24
$GPGGA,112632.00,5556.43149,N,00315.22988,W,1,04,14.94,-33.8,M,49.9,M,,*60
$GPGSA,A,3,21,32,02,28,,,,,,,,,22.61,14.94,16.97*3E
$GPGSV,4,1,13,02,58,123,30,03,73,222,,04,19,174,21,06,07,289,*78
$GPGSV,4,2,13,12,00,000,,14,08,245,,17,52,282,17,19,32,308,*7D
$GPGSV,4,3,13,21,40,120,30,22,19,266,,28,13,071,24,31,03,101,28*72
$GPGSV,4,4,13,32,16,037,26*4D
$GPGLL,5556.43149,N,00315.22988,W,112632.00,A,A*78
$GPRMC,112633.00,A,5556.43150,N,00315.23063,W,0.345,,260724,,,A*62
$GPVTG,,T,,M,0.345,N,0.638,K,A*2C
$GPGGA,112633.00,5556.43150,N,00315.23063,W,1,04,14.92,-33.7,M,49.9,M,,*6D
$GPGSA,A,3,21,32,02,28,,,,,,,,,22.58,14.92,16.95*30
$GPGSV,4,1,13,02,58,123,31,03,73,222,,04,19,174,21,06,07,289,*79
$GPGSV,4,2,13,12,00,000,,14,08,245,,17,52,282,17,19,32,308,*7D
$GPGSV,4,3,13,21,40,120,31,22,19,266,,28,13,071,23,31,03,101,28*74
$GPGSV,4,4,13,32,16,037,26*4D
$GPGLL,5556.43150,N,00315.23063,W,112633.00,A,A*7C
$GPRMC,112634.00,A,5556.43150,N,00315.23019,W,0.416,,260724,,,A*69
$GPVTG,,T,,M,0.416,N,0.770,K,A*20
$GPGGA,112634.00,5556.43150,N,00315.23019,W,1,04,14.89,-33.6,M,49.9,M,,*6C
$GPGSA,A,3,21,32,02,28,,,,,,,,,22.54,14.89,16.92*31
$GPGSV,4,1,13,02,58,123,31,03,73,222,,04,19,174,22,06,07,289,*7A
$GPGSV,4,2,13,12,00,000,,14,08,245,,17,52,282,15,19,32,308,*7F
$GPGSV,4,3,13,21,40,120,31,22,19,266,,28,13,071,23,31,03,101,28*74
$GPGSV,4,4,13,32,16,037,27*4C
$GPGLL,5556.43150,N,00315.23019,W,112634.00,A,A*76
$GPRMC,112635.00,A,5556.43144,N,00315.23059,W,0.100,,260724,,,A*6B
$GPVTG,,T,,M,0.100,N,0.185,K,A*2E
$GPGGA,112635.00,5556.43144,N,00315.23059,W,1,04,14.87,-33.5,M,49.9,M,,*61
$GPGSA,A,3,21,32,02,28,,,,,,,,,22.51,14.87,16.90*38
$GPGSV,4,1,13,02,58,123,31,03,73,222,,04,19,174,21,06,07,289,*79
$GPGSV,4,2,13,12,00,000,,14,08,245,,17,52,282,15,19,32,308,*7F
$GPGSV,4,3,13,21,40,120,31,22,19,266,,28,13,071,22,31,03,101,28*75
$GPGSV,4,4,13,32,16,037,26*4D
$GPGLL,5556.43144,N,00315.23059,W,112635.00,A,A*76
$GPRMC,112636.00,A,5556.43151,N,00315.23021,W,0.313,,260724,,,A*63
$GPVTG,,T,,M,0.313,N,0.580,K,A*2F
$GPGGA,112636.00,5556.43151,N,00315.23021,W,1,04,14.85,-33.4,M,49.9,M,,*6A
$GPGSA,A,3,21,32,02,28,,,,,,,,,22.48,14.85,16.87*34
$GPGSV,4,1,13,02,58,123,31,03,73,222,,04,19,174,21,06,07,289,*79
$GPGSV,4,2,13,12,00,000,,14,08,245,,17,52,282,15,19,32,308,*7F
$GPGSV,4,3,13,21,40,120,31,22,19,266,,28,13,071,22,31,03,101,28*75
$GPGSV,4,4,13,32,16,037,26*4D
$GPGLL,5556.43151,N,00315.23021,W,112636.00,A,A*7E
$GPRMC,112637.00,A,5556.43154,N,00315.22953,W,0.407,,260724,,,A*68
$GPVTG,,T,,M,0.407,N,0.754,K,A*26
$GPGGA,112637.00,5556.43154,N,00315.22953,W,1,04,14.82,-33.3,M,49.9,M,,*63
$GPGSA,A,3,21,32,02,28,,,,,,,,,22.44,14.82,16.85*3D
$GPGSV,4,1,13,02,58,123,31,03,73,222,,04,19,174,21,06,07,289,*79
$GPGSV,4,2,13,12,00,000,,14,08,245,,17,52,282,14,19,32,308,*7E
$GPGSV,4,3,13,21,40,120,32,22,19,266,,28,13,071,21,31,03,101,28*75
$GPGSV,4,4,13,32,16,037,27*4C
$GPGLL,5556.43154,N,00315.22953,W,112637.00,A,A*77
$GPRMC,112638.00,A,5556.43142,N,00315.23001,W,0.052,,260724,,,A*6B
$GPVTG,,T,,M,0.052,N,0.097,K,A*2A
$GPGGA,112638.00,5556.43142,N,00315.23001,W,1,04,14.80,-33.2,M,49.9,M,,*67
$GPGSA,A,3,21,32,02,28,,,,,,,,,22.41,14.80,16.83*3C
$GPGSV,4,1,13,02,58,123,31,03,73,222,,04,19,174,21,06,07,289,*79
$GPGSV,4,2,13,12,00,000,,14,08,245,,17,52,282,13,19,32,308,*79
$GPGSV,4,3,13,21,40,120,32,22,19,266,,28,13,071,21,31,03,101,28*75
$GPGSV,4,4,13,32,16,037,27*4C
$GPGLL,5556.43142,N,00315.23001,W,112638.00,A,A*70
$GPRMC,112639.00,A,5556.43132,N,00315.23010,W,0.199,,260724,,,A*6B
$GPVTG,,T,,M,0.199,N,0.369,K,A*2E
$GPGGA,112639.00,5556.43132,N,00315.23010,W,1,04,14.77,-33.2,M,49.9,M,,*69
$GPGSA,A,3,21,32,02,28,,,,,,,,,22.37,14.77,16.80*36
$GPGSV,4,1,13,02,58,123,31,03,73,222,,04,19,174,21,06,07,289,*79
$GPGSV,4,2,13,12,00,000,,14,08,245,,17,52,282,13,19,32,308,*79
$GPGSV,4,3,13,21,40,120,32,22,19,266,,28,13,071,21,31,03,101,28*75
$GPGSV,4,4,13,32,16,037,27*4C
$GPGLL,5556.43132,N,00315.23010,W,112639.00,A,A*76
$GPRMC,112640.00,A,5556.43131,N,00315.23005,W,0.106,,260724,,,A*64
$GPVTG,,T,,M,0.106,N,0.197,K,A*2B
$GPGGA,112640.00,5556.43131,N,00315.23005,W,1,04,14.75,-33.1,M,49.9,M,,*61
$GPGSA,A,3,21,32,02,28,,,,,,,,,22.34,14.75,16.78*30
$GPGSV,4,1,13,02,58,123,31,03,73,222,,04,19,174,21,06,07,289,*79
$GPGSV,4,2,13,12,00,000,,14,08,245,,17,52,282,13,19,32,308,*79
$GPGSV,4,3,13,21,40,120,31,22,19,266,,28,13,071,22,31,03,101,28*75
$GPGSV,4,4,13,32,16,037,26*4D
$GPGLL,5556.43131,N,00315.23005,W,112640.00,A,A*7F
$GPRMC,112641.00,A,5556.43126,N,00315.23036,W,0.082,,260724,,,A*6E
$GPVTG,,T,,M,0.082,N,0.152,K,A*2F
$GPGGA,112641.00,5556.43126,N,00315.23036,W,1,04,14.73,-33.1,M,49.9,M,,*60
$GPGSA,A,3,21,32,02,28,,,,,,,,,22.31,14.73,16.75*3E
$GPGSV,4,1,13,02,58,123,31,03,73,222,,04,19,174,21,06,07,289,*79
$GPGSV,4,2,13,12,00,000,,14,08,245,,17,52,282,12,19,32,308,*78
$GPGSV,4,3,13,21,40,120,31,22,19,266,,28,13,071,23,31,03,101,28*74
$GPGSV,4,4,13,32,16,037,26*4D
$GPGLL,5556.43126,N,00315.23036,W,112641.00,A,A*78
$GPRMC,112642.00,A,5556.43123,N,00315.23033,W,0.067,,260724,,,A*66
$GPVTG,,T,,M,0.067,N,0.124,K,A*25
